#Pason DataHub                     Well Dossier No:    25396325
#LAS - Log ASCII Standard         Report Generated:    2020-01-02 16:49:03CST
~VERSION INFORMATION
VERS.                                          2.0:    CWLS LOG ASCII STANDARD - VERSION 2.0
WRAP.                                           No:    ONE LINE PER DEPTH STEP
~WELL INFORMATION BLOCK
#MNEM.UNIT                                     DATA    DESCRIPTION OF MNEMONIC
#---------                                     ----    -----------------------
STRT.feet                                     58.0:    Start Depth
STOP.feet                                  17137.0:    Stop Depth
STEP.feet                                      1.0:    Step Value
NULL.                                      -999.25:    NULL Value
COMP.                         Surge Operating, LLC:    Company
WELL.                  Middleton Unit B 47-38 #8SH:    Well
FLD .                                             :    Field
LOC .                                             :    Location
CNTY.                                       Howard:    County
STAT.                                           TX:    State
CTRY.                                United States:    Country
SRVC.                             Latshaw Drilling:    Service Company
DATE.                                             :    Date
API .                                             :    API Number
RIG .                                    Latshaw 9:    Rig
NUM .                                     25396325:    Well Dossier No
~CURVE INFORMATION
#MNEM.UNIT                                 API CODE    CURVE DESCRIPTION
#---------                                 --------    -----------------
DEPT .feet                                     001:      5  Hole Depth
TVD  .feet                                     960:     50  True Vertical Depth
ROP  .ft/hr                                       :      3  Rate Of Penetration
RPM  .RPM                                         :     11  Rotary RPM
TOR  .                                            :     12  Rotary Torque
WOB  .kDaN                                        :     13  Weight on Bit
ROP  .m/hr                                        :      3  Rate Of Penetration
BITOR.kf-lbf                                      :    824  Bit Torque
BHT  .meters                                      :     28  Block Height
DIFP .kPa                                         :    123  Differential Pressure
DARW .kDaN                                        :    715  DAS Recommended WOB
DARR .RPM                                         :    716  DAS Recommended RPM
ADTPD.tick/ft                                     :    238  AutoDriller Ticks Per Depth
DBRMN.RPM                                         :    722  DAS Bit RPM Min
DARDP.kPa                                         :    731  DAS Recommended DIFFP
DRROP.m/hr                                        :    739  DAS Recommended ROP
DATE .yymmdd                                      :      0  YearMonthDay
TIME .hhmmss                                      :      0  HoursMinutesSeconds
# NOTE: Data generated with Omit Duplicate Depths enabled
~A DEPT       TVD      ROP      RPM      TOR      WOB      ROP    BITOR      BHT     DIFP     DARW     DARR    ADTPD    DBRMN    DARDP    DRROP   YYMMDD HHMMSS
58.0         58.0    30.59     0.00    0.000      4.2     9.32        0     15.3      0.0  -999.25  -999.25    -2875  -999.25  -999.25  -999.25   191203 220144
59.0      -999.25  -999.25  -999.25  -999.25  -999.25  -999.25  -999.25  -999.25  -999.25  -999.25  -999.25  -999.25  -999.25  -999.25  -999.25   191203 220144
60.0      -999.25  -999.25  -999.25  -999.25  -999.25  -999.25  -999.25  -999.25  -999.25  -999.25  -999.25  -999.25  -999.25  -999.25  -999.25   191203 220144
61.0      -999.25  -999.25  -999.25  -999.25  -999.25  -999.25  -999.25  -999.25  -999.25  -999.25  -999.25  -999.25  -999.25  -999.25  -999.25   191203 220144
62.0         62.0   304.03     0.00    0.000      4.2    92.67        0     14.3      0.0  -999.25  -999.25    -2875  -999.25  -999.25  -999.25   191203 220224
63.0         63.0    28.16     0.00    0.000      3.3     8.58        0     13.7      0.0  -999.25  -999.25    -2875  -999.25  -999.25  -999.25   191203 220225
64.0         64.0    65.03     0.00    0.000      3.3    19.82        0     13.4      0.0  -999.25  -999.25    -2875  -999.25  -999.25  -999.25   191203 220226
65.0         65.0   108.28     0.00    0.000      3.1    33.00        0     13.1      0.0  -999.25  -999.25    -2875  -999.25  -999.25  -999.25   191203 220227
66.0         66.0   164.80     0.00    0.000      3.5    50.23        0     12.8      0.0  -999.25  -999.25    -2875  -999.25  -999.25  -999.25   191203 220228
67.0      -999.25  -999.25  -999.25  -999.25  -999.25  -999.25  -999.25  -999.25  -999.25  -999.25  -999.25  -999.25  -999.25  -999.25  -999.25   191203 220228
68.0         68.0   298.78     0.00    0.000      3.3    91.07        0     12.2      0.0  -999.25  -999.25    -2875  -999.25  -999.25  -999.25   191203 220229
69.0         69.0   370.61     0.00    0.000      3.3   112.96        0     11.8      0.0  -999.25  -999.25    -2875  -999.25  -999.25  -999.25   191203 220230
70.0      -999.25  -999.25  -999.25  -999.25  -999.25  -999.25  -999.25  -999.25  -999.25  -999.25  -999.25  -999.25  -999.25  -999.25  -999.25   191203 220230
71.0         71.0   570.24     0.00    0.000      3.8   173.81        0     11.3      0.0  -999.25  -999.25    -2875  -999.25  -999.25  -999.25   191203 220231
72.0         72.0   669.45     0.00    0.000      3.1   204.05        0     10.9      0.0  -999.25  -999.25    -2875  -999.25  -999.25  -999.25   191203 220232
73.0      -999.25  -999.25  -999.25  -999.25  -999.25  -999.25  -999.25  -999.25  -999.25  -999.25  -999.25  -999.25  -999.25  -999.25  -999.25   191203 220232
74.0         74.0   933.40     0.00    0.000      2.7   284.50        0     10.3      0.0  -999.25  -999.25    -2875  -999.25  -999.25  -999.25   191203 220233
75.0         75.0  1150.15     0.00    0.000      3.3   350.57        0     10.0      0.0  -999.25  -999.25    -2875  -999.25  -999.25  -999.25   191203 220234
76.0      -999.25  -999.25  -999.25  -999.25  -999.25  -999.25  -999.25  -999.25  -999.25  -999.25  -999.25  -999.25  -999.25  -999.25  -999.25   191203 220234
77.0         77.0  1390.72     0.00    0.000      3.4   423.89        0      9.4      0.0  -999.25  -999.25    -2875  -999.25  -999.25  -999.25   191203 220235
78.0         78.0  1579.40     0.00    0.000      3.3   481.40        0      9.1      0.0  -999.25  -999.25    -2875  -999.25  -999.25  -999.25   191203 220236
79.0      -999.25  -999.25  -999.25  -999.25  -999.25  -999.25  -999.25  -999.25  -999.25  -999.25  -999.25  -999.25  -999.25  -999.25  -999.25   191203 220236
80.0         80.0  2003.64     0.00    0.000      3.2   610.71        0      8.5      0.0  -999.25  -999.25    -2875  -999.25  -999.25  -999.25   191203 220237
81.0         81.0  2188.18     0.00    0.000      3.4   666.96        0      8.1      0.0  -999.25  -999.25    -2875  -999.25  -999.25  -999.25   191203 220238
82.0         82.0  2440.68     0.00    0.000      3.0   743.92        0      7.9      0.0  -999.25  -999.25    -2875  -999.25  -999.25  -999.25   191203 220239
83.0      -999.25  -999.25  -999.25  -999.25  -999.25  -999.25  -999.25  -999.25  -999.25  -999.25  -999.25  -999.25  -999.25  -999.25  -999.25   191203 220239
84.0         84.0  2882.88     0.00    0.000      4.1   878.70        0      7.3      0.0  -999.25  -999.25    -2875  -999.25  -999.25  -999.25   191203 220240
85.0         85.0  3802.79     0.00    0.000      4.1  1159.09        0      7.0      0.0  -999.25  -999.25    -2875  -999.25  -999.25  -999.25   191203 220244
86.0         86.0  4067.13     0.00    0.000      3.4  1239.66        0      6.6      0.0  -999.25  -999.25    -2875  -999.25  -999.25  -999.25   191203 220246
87.0         87.0   119.33     0.00    0.000      4.2    36.37        0     14.8      0.0  -999.25  -999.25    -2875  -999.25  -999.25  -999.25   191203 220836
88.0         88.0   281.54     0.00    0.000      3.9    85.81        0     14.5      0.0  -999.25  -999.25    -2875  -999.25  -999.25  -999.25   191203 220840
89.0         89.0   413.34     0.00    0.000      4.0   125.99        0     14.1      0.0  -999.25  -999.25    -2875  -999.25  -999.25  -999.25   191203 220844
90.0         90.0   543.75     0.00    0.000      4.2   165.74        0     13.8      0.0  -999.25  -999.25    -2875  -999.25  -999.25  -999.25   191203 220850
91.0         91.0   644.57     0.00    0.000      2.9   196.47        0     13.5      0.0  -999.25  -999.25    -2875  -999.25  -999.25  -999.25   191203 220851
92.0         92.0   704.42     0.00    0.000      2.5   214.71        0     13.2      0.0  -999.25  -999.25    -2875  -999.25  -999.25  -999.25   191203 220853
93.0         93.0   789.08     0.00    0.000      2.7   240.51        0     12.9      0.0  -999.25  -999.25    -2875  -999.25  -999.25  -999.25   191203 220854
94.0         94.0   872.00     0.00    0.000      2.5   265.79        0     12.6      0.0  -999.25  -999.25    -2875  -999.25  -999.25  -999.25   191203 220856
95.0         95.0   955.42     0.00    0.000      2.6   291.21        0     12.3      0.0  -999.25  -999.25    -2875  -999.25  -999.25  -999.25   191203 220857
96.0         96.0  1036.94     0.00    0.000      2.9   316.06        0     12.0      0.0  -999.25  -999.25    -2875  -999.25  -999.25  -999.25   191203 220858
97.0         97.0  1142.97     0.00    0.000      3.1   348.38        0     11.7      0.0  -999.25  -999.25    -2875  -999.25  -999.25  -999.25   191203 220900
98.0         98.0  1319.85     0.00    0.000      3.0   402.29        0     11.4      0.0  -999.25  -999.25    -2875  -999.25  -999.25  -999.25   191203 220902
99.0         99.0  1596.56     0.00    0.000      2.8   486.63        0     11.1      0.0  -999.25  -999.25    -2875  -999.25  -999.25  -999.25   191203 220905
100.0       100.0  1819.29     0.00    0.000      2.5   554.52        0     10.8      0.0  -999.25  -999.25    -2875  -999.25  -999.25  -999.25   191203 220908
101.0       101.0  1909.93     0.00    0.000      2.5   582.15        0     10.5      0.0  -999.25  -999.25    -2875  -999.25  -999.25  -999.25   191203 220910
102.0       102.0  1933.31     0.00    0.000      3.0   589.27        0     10.2      0.0  -999.25  -999.25    -2875  -999.25  -999.25  -999.25   191203 220913
103.0       103.0  1915.54     0.00    0.000      2.6   583.86        0      9.8      0.0  -999.25  -999.25    -2875  -999.25  -999.25  -999.25   191203 220915
104.0       104.0  1866.67     0.00    0.000      3.1   568.96        0      9.6      0.0  -999.25  -999.25    -2875  -999.25  -999.25  -999.25   191203 220917
105.0       105.0  1767.59     0.00    0.000      3.0   538.76        0      9.2      0.0  -999.25  -999.25    -2875  -999.25  -999.25  -999.25   191203 220919
106.0       106.0  1669.29     0.00    0.000      2.3   508.80        0      9.0      0.0  -999.25  -999.25    -2875  -999.25  -999.25  -999.25   191203 220921
107.0       107.0  1609.78     0.00    0.000      2.6   490.66        0      8.6      0.0  -999.25  -999.25    -2875  -999.25  -999.25  -999.25   191203 220923
