#Pason DataHub                     Well Dossier No:    25396325
#LAS - Log ASCII Standard         Report Generated:    2020-01-02 16:49:03CST
~VERSION INFORMATION
VERS.                                          2.0:    CWLS LOG ASCII STANDARD - VERSION 2.0
WRAP.                                           No:    ONE LINE PER DEPTH STEP
~WELL INFORMATION BLOCK
#MNEM.UNIT                                     DATA    DESCRIPTION OF MNEMONIC
#---------                                     ----    -----------------------
STRT.feet                                     58.0:    Start Depth
STOP.feet                                  17137.0:    Stop Depth
STEP.feet                                      1.0:    Step Value
NULL.                                      -999.25:    NULL Value
COMP.                         Surge Operating, LLC:    Company
WELL.                  Middleton Unit B 47-38 #8SH:    Well
FLD .                                             :    Field
LOC .                                             :    Location
CNTY.                                       Howard:    County
STAT.                                           TX:    State
CTRY.                                United States:    Country
SRVC.                             Latshaw Drilling:    Service Company
DATE.                                             :    Date
API .                                             :    API Number
RIG .                                    Latshaw 9:    Rig
NUM .                                     25396325:    Well Dossier No
~CURVE INFORMATION
#MNEM.UNIT                                 API CODE    CURVE DESCRIPTION
#---------                                 --------    -----------------
DEPT .feet                                     001:      5  Hole Depth
TVD  .feet                                     960:     50  True Vertical Depth
ROP  .ft/hr                                       :      3  Rate Of Penetration
RPM  .RPM                                         :     11  Rotary RPM
TOR  .                                            :     12  Rotary Torque
WOB  .kDaN                                        :     13  Weight on Bit
ROP  .m/hr                                        :      3  Rate Of Penetration
BITOR.kf-lbf                                      :    824  Bit Torque
BHT  .meters                                      :     28  Block Height
DIFP .kPa                                         :    123  Differential Pressure
DARW .kDaN                                        :    715  DAS Recommended WOB
DARR .RPM                                         :    716  DAS Recommended RPM
ADTPD.tick/ft                                     :    238  AutoDriller Ticks Per Depth
DBRMN.RPM                                         :    722  DAS Bit RPM Min
DARDP.kPa                                         :    731  DAS Recommended DIFFP
DRROP.m/hr                                        :    739  DAS Recommended ROP
DATE .yymmdd                                      :      0  YearMonthDay
TIME .hhmmss                                      :      0  HoursMinutesSeconds
# NOTE: Data generated with Omit Duplicate Depths enabled
~A DEPT       TVD      ROP      RPM      TOR      WOB      ROP    BITOR      BHT     DIFP     DARW     DARR    ADTPD    DBRMN    DARDP    DRROP   YYMMDD HHMMSS
# ...
1208.0     1207.4   292.80    61.79    6.057      9.8    89.25        6     28.2   2557.7  -999.25  -999.25    -2875  -999.25  -999.25  -999.25   191205 013423
1209.0     1208.4   240.49    62.52    6.300      8.3    73.30        6     27.9   2592.7  -999.25  -999.25    -2875  -999.25  -999.25  -999.25   191205 013437
1210.0     1209.4   276.16    60.47    6.015      8.2    84.17        6     27.6   2609.5  -999.25  -999.25    -2875  -999.25  -999.25  -999.25   191205 013449
1211.0     1210.4   279.25    62.36    6.488      8.5    85.12        6     27.3   2632.4  -999.25  -999.25    -2875  -999.25  -999.25  -999.25   191205 013502
1212.0     1211.4   286.54    62.30    6.253      8.5    87.34        6     27.0   2671.9  -999.25  -999.25    -2875  -999.25  -999.25  -999.25   191205 013515
1213.0     1212.4   288.02    62.74    6.638      9.0    87.79        6     26.7   2648.7  -999.25  -999.25    -2875  -999.25  -999.25  -999.25   191205 013529
1214.0     1213.4   271.18    61.35    6.277      8.0    82.66        6     26.4   2651.4  -999.25  -999.25    -2875  -999.25  -999.25  -999.25   191205 013543
1215.0     1214.4   265.06    62.20    5.677      9.6    80.79        6     26.1   2567.2  -999.25  -999.25    -2875  -999.25  -999.25  -999.25   191205 013600
1216.0     1215.4   232.91    61.92    5.738      7.9    70.99        6     25.8   2509.6  -999.25  -999.25    -2875  -999.25  -999.25  -999.25   191205 013615
1217.0     1216.4   239.93    61.73    5.719      7.9    73.13        6     25.5   2589.2  -999.25  -999.25    -2875  -999.25  -999.25  -999.25   191205 013630
1218.0     1217.4   242.67    61.89    5.724      8.2    73.96        6     25.2   2438.1  -999.25  -999.25    -2875  -999.25  -999.25  -999.25   191205 013645
1219.0     1218.4   241.41    60.85    5.659      8.1    73.58        6     24.8   2548.0  -999.25  -999.25    -2875  -999.25  -999.25  -999.25   191205 013700
1220.0     1219.4   245.97    62.20    5.579      7.6    74.97        6     24.6   2549.9  -999.25  -999.25    -2875  -999.25  -999.25  -999.25   191205 013714
1221.0     1220.4   264.36    62.87    6.520      8.0    80.58        6     24.2   2513.2  -999.25  -999.25    -2875  -999.25  -999.25  -999.25   191205 013727
1222.0     1221.4   266.33    63.15    5.860      9.8    81.18        6     23.9   2534.9  -999.25  -999.25    -2875  -999.25  -999.25  -999.25   191205 013745
1223.0     1222.4   223.08    62.80    6.029      9.7    67.99        6     23.6   2433.4  -999.25  -999.25    -2875  -999.25  -999.25  -999.25   191205 013802
1224.0     1223.4   222.71    62.14    5.246      7.7    67.88        6     23.3   2433.8  -999.25  -999.25    -2875  -999.25  -999.25  -999.25   191205 013816
1225.0     1224.4   252.85    62.46    5.996      9.3    77.07        6     23.0   2419.4  -999.25  -999.25    -2875  -999.25  -999.25  -999.25   191205 013832
1226.0     1225.4   242.46    62.30    5.930      8.6    73.90        6     22.7   2524.3  -999.25  -999.25    -2875  -999.25  -999.25  -999.25   191205 013849
1227.0     1226.4   222.58    62.87    5.766      8.3    67.84        6     22.4   2494.4  -999.25  -999.25    -2875  -999.25  -999.25  -999.25   191205 013904
1228.0     1227.4   238.45    61.86    5.738      7.9    72.68        6     22.1   2532.9  -999.25  -999.25    -2875  -999.25  -999.25  -999.25   191205 013919
1229.0     1228.4   258.46    61.45    5.949      8.9    78.78        6     21.8   2541.5  -999.25  -999.25    -2875  -999.25  -999.25  -999.25   191205 013932
1230.0     1229.4   274.33    61.98    6.328      8.1    83.62        6     21.5   2630.3  -999.25  -999.25    -2875  -999.25  -999.25  -999.25   191205 013944
1231.0     1230.4   286.27    62.33    6.483      8.9    87.26        6     21.2   2643.8  -999.25  -999.25    -2875  -999.25  -999.25  -999.25   191205 013958
1232.0     1231.4   283.11    62.01    6.375      8.1    86.29        6     20.9   2588.1  -999.25  -999.25    -2875  -999.25  -999.25  -999.25   191205 014011
1233.0     1232.4   272.80    61.67    5.954      8.5    83.15        6     20.6   2638.8  -999.25  -999.25    -2875  -999.25  -999.25  -999.25   191205 014025
1234.0     1233.4   268.51    62.68    6.174      8.0    81.84        6     20.3   2634.7  -999.25  -999.25    -2875  -999.25  -999.25  -999.25   191205 014039
1235.0     1234.4   266.89    61.95    6.291      8.0    81.35        6     20.0   2629.2  -999.25  -999.25    -2875  -999.25  -999.25  -999.25   191205 014052
1236.0     1235.4   269.77    61.86    6.277      8.3    82.23        6     19.7   2652.5  -999.25  -999.25    -2875  -999.25  -999.25  -999.25   191205 014106
1237.0     1236.4   269.84    61.67    6.291      8.6    82.25        6     19.4   2654.8  -999.25  -999.25    -2875  -999.25  -999.25  -999.25   191205 014119
1238.0     1237.4   266.26    62.36    6.108      9.1    81.16        6     19.1   2480.4  -999.25  -999.25    -2875  -999.25  -999.25  -999.25   191205 014134
1239.0     1238.4   255.02    62.30    5.982      7.5    77.73        6     18.8   2507.6  -999.25  -999.25    -2875  -999.25  -999.25  -999.25   191205 014148
1240.0     1239.4   264.77    61.51    6.300      8.1    80.70        6     18.5   2569.0  -999.25  -999.25    -2875  -999.25  -999.25  -999.25   191205 014201
1241.0     1240.4   284.73    61.38    6.366      8.2    86.78        7     18.1   2764.4  -999.25  -999.25    -2875  -999.25  -999.25  -999.25   191205 014213
1242.0     1241.4   297.16    63.37    6.600      8.3    90.57        6     17.8   2609.9  -999.25  -999.25    -2875  -999.25  -999.25  -999.25   191205 014225
1243.0     1242.4   297.09    61.67    6.431      8.8    90.55        6     17.5   2607.7  -999.25  -999.25    -2875  -999.25  -999.25  -999.25   191205 014238
1244.0     1243.4   292.10    62.84    5.565      8.9    89.03        6     17.2   2620.1  -999.25  -999.25    -2875  -999.25  -999.25  -999.25   191205 014253
1245.0     1244.4   260.47    61.16    5.794      8.2    79.39        6     16.9   2453.2  -999.25  -999.25    -2875  -999.25  -999.25  -999.25   191205 014307
1246.0     1245.4   256.77    62.01    5.214      8.1    78.26        6     16.6   2355.3  -999.25  -999.25    -2875  -999.25  -999.25  -999.25   191205 014321
1247.0     1246.4   267.32    61.45    5.429      8.5    81.48        6     16.3   2302.6  -999.25  -999.25    -2875  -999.25  -999.25  -999.25   191205 014333
1248.0     1247.4   279.25    61.10    5.490      9.3    85.12        6     16.0   2543.1  -999.25  -999.25    -2875  -999.25  -999.25  -999.25   191205 014349
1249.0     1248.4   263.25    61.29    5.837      8.6    80.24        6     15.7   2454.8  -999.25  -999.25    -2875  -999.25  -999.25  -999.25   191205 014404
1250.0     1249.4   231.01    62.93    6.366      9.3    70.41        7     15.4   2758.2  -999.25  -999.25    -2875  -999.25  -999.25  -999.25   191205 014420
1251.0     1250.4   245.83    61.70    6.202      7.6    74.93        6     15.1   2695.5  -999.25  -999.25    -2875  -999.25  -999.25  -999.25   191205 014434
1252.0     1251.4   256.43    63.28    6.951      9.8    78.16        6     14.8   2643.8  -999.25  -999.25    -2875  -999.25  -999.25  -999.25   191205 014448
1253.0     1252.4   254.74    62.33    5.897      7.2    77.64        6     14.5   2634.3  -999.25  -999.25    -2875  -999.25  -999.25  -999.25   191205 014502
1254.0     1253.4   266.11    62.01    6.811      9.7    81.11        7     14.2   2750.0  -999.25  -999.25    -2875  -999.25  -999.25  -999.25   191205 014518
1255.0     1254.4   255.79    62.01    6.207      8.4    77.97        7     13.9   2773.6  -999.25  -999.25    -2875  -999.25  -999.25  -999.25   191205 014533
1256.0     1255.4   244.42    61.41    6.019      7.4    74.50        7     13.6   2769.1  -999.25  -999.25    -2875  -999.25  -999.25  -999.25   191205 014546
1257.0     1256.4   280.50    62.68    6.450      7.6    85.50        6     13.3   2580.1  -999.25  -999.25    -2875  -999.25  -999.25  -999.25   191205 014558
