#Pason DataHub                     Well Dossier No:    25396325
#LAS - Log ASCII Standard         Report Generated:    2020-01-02 16:49:03CST
~VERSION INFORMATION
VERS.                                          2.0:    CWLS LOG ASCII STANDARD - VERSION 2.0
WRAP.                                           No:    ONE LINE PER DEPTH STEP
~WELL INFORMATION BLOCK
#MNEM.UNIT                                     DATA    DESCRIPTION OF MNEMONIC
#---------                                     ----    -----------------------
STRT.feet                                     58.0:    Start Depth
STOP.feet                                  17137.0:    Stop Depth
STEP.feet                                      1.0:    Step Value
NULL.                                      -999.25:    NULL Value
COMP.                         Surge Operating, LLC:    Company
WELL.                  Middleton Unit B 47-38 #8SH:    Well
FLD .                                             :    Field
LOC .                                             :    Location
CNTY.                                       Howard:    County
STAT.                                           TX:    State
CTRY.                                United States:    Country
SRVC.                             Latshaw Drilling:    Service Company
DATE.                                             :    Date
API .                                             :    API Number
RIG .                                    Latshaw 9:    Rig
NUM .                                     25396325:    Well Dossier No
~CURVE INFORMATION
#MNEM.UNIT                                 API CODE    CURVE DESCRIPTION
#---------                                 --------    -----------------
DEPT .feet                                     001:      5  Hole Depth
TVD  .feet                                     960:     50  True Vertical Depth
ROP  .ft/hr                                       :      3  Rate Of Penetration
RPM  .RPM                                         :     11  Rotary RPM
TOR  .                                            :     12  Rotary Torque
WOB  .kDaN                                        :     13  Weight on Bit
ROP  .m/hr                                        :      3  Rate Of Penetration
BITOR.kf-lbf                                      :    824  Bit Torque
BHT  .meters                                      :     28  Block Height
DIFP .kPa                                         :    123  Differential Pressure
DARW .kDaN                                        :    715  DAS Recommended WOB
DARR .RPM                                         :    716  DAS Recommended RPM
ADTPD.tick/ft                                     :    238  AutoDriller Ticks Per Depth
DBRMN.RPM                                         :    722  DAS Bit RPM Min
DARDP.kPa                                         :    731  DAS Recommended DIFFP
DRROP.m/hr                                        :    739  DAS Recommended ROP
DATE .yymmdd                                      :      0  YearMonthDay
TIME .hhmmss                                      :      0  HoursMinutesSeconds
# NOTE: Data generated with Omit Duplicate Depths enabled
~A DEPT       TVD      ROP      RPM      TOR      WOB      ROP    BITOR      BHT     DIFP     DARW     DARR    ADTPD    DBRMN    DARDP    DRROP   YYMMDD HHMMSS
# ...
10308.0    7563.0   101.04    71.65   14.395     16.0    30.80        3      1.0   2025.3  -999.25  -999.25    -2875  -999.25  -999.25  -999.25   191224 021133
10309.0    7563.1    99.07    71.83   14.741     15.9    30.20        3      0.7   2050.3  -999.25  -999.25    -2875  -999.25  -999.25  -999.25   191224 021209
10310.0    7563.1   103.85    72.15   14.657     16.0    31.65        3      0.4   2008.3  -999.25  -999.25    -2875  -999.25  -999.25  -999.25   191224 021245
10311.0    7563.1   110.24    71.55   14.919     16.0    33.60        3      0.1   2018.6  -999.25  -999.25    -2875  -999.25  -999.25  -999.25   191224 021319
10312.0    7563.1   108.42    71.71   15.032     16.0    33.05        3     -0.2   2161.7  -999.25  -999.25    -2875  -999.25  -999.25  -999.25   191224 021352
10313.0    7563.1   106.80    71.55   14.741     16.0    32.55        3     -0.5   2169.9  -999.25  -999.25    -2875  -999.25  -999.25  -999.25   191224 021428
10314.0    7563.1    95.82    71.61    9.017      9.1    29.21        1     27.9    773.6  -999.25  -999.25    -2875  -999.25  -999.25  -999.25   191224 022243
10315.0    7563.2   259.89    71.55   12.980     15.1    79.21        2     27.6   1194.7  -999.25  -999.25    -2875  -999.25  -999.25  -999.25   191224 022251
10316.0    7563.2   368.85    73.48   15.144     16.3   112.42        3     27.3   2164.4  -999.25  -999.25    -2875  -999.25  -999.25  -999.25   191224 022329
10317.0    7563.2    97.10    74.49   15.313     15.9    29.60        3     27.0   2268.7  -999.25  -999.25    -2875  -999.25  -999.25  -999.25   191224 022410
10318.0    7563.2    93.73    73.76   15.153     16.1    28.57        3     26.7   2355.1  -999.25  -999.25    -2875  -999.25  -999.25  -999.25   191224 022449
10319.0    7563.2   103.78    73.79   14.929     16.0    31.63        3     26.4   2337.5  -999.25  -999.25    -2875  -999.25  -999.25  -999.25   191224 022529
10320.0    7563.3    95.91    74.11   15.317     16.0    29.23        3     26.1   2317.2  -999.25  -999.25    -2875  -999.25  -999.25  -999.25   191224 022608
10321.0    7563.3   103.07    74.05   15.036     16.0    31.42        3     25.8   2446.4  -999.25  -999.25    -2875  -999.25  -999.25  -999.25   191224 022645
10322.0    7563.3    97.88    74.20   14.999     16.0    29.83        3     25.5   2348.1  -999.25  -999.25    -2875  -999.25  -999.25  -999.25   191224 022724
10323.0    7563.3    96.34    74.42   14.385     16.0    29.36        3     25.1   2358.1  -999.25  -999.25    -2875  -999.25  -999.25  -999.25   191224 022802
10324.0    7563.3    98.44    74.23   14.961     16.0    30.01        3     24.8   2351.9  -999.25  -999.25    -2875  -999.25  -999.25  -999.25   191224 022849
10325.0    7563.3   101.58    74.36   14.825     15.9    30.96        3     24.5   2240.7  -999.25  -999.25    -2875  -999.25  -999.25  -999.25   191224 022930
10326.0    7563.4   104.83    73.98   14.474     15.9    31.95        3     24.2   2239.4  -999.25  -999.25    -2875  -999.25  -999.25  -999.25   191224 023003
10327.0    7563.4   116.83    73.92   15.116     16.0    35.61        3     23.9   2469.9  -999.25  -999.25    -2875  -999.25  -999.25  -999.25   191224 023038
10328.0    7563.4   110.73    73.86   15.299     16.0    33.75        4     23.6   2689.8  -999.25  -999.25    -2875  -999.25  -999.25  -999.25   191224 023111
10329.0    7563.4   108.76    73.67   14.648     15.9    33.15        4     23.3   2524.4  -999.25  -999.25    -2875  -999.25  -999.25  -999.25   191224 023147
10330.0    7563.4   108.13    74.11   15.369     15.9    32.96        3     23.0   2455.7  -999.25  -999.25    -2875  -999.25  -999.25  -999.25   191224 023223
10331.0    7563.5   105.95    74.14   15.013     16.0    32.29        4     22.7   2553.9  -999.25  -999.25    -2875  -999.25  -999.25  -999.25   191224 023259
10332.0    7563.5   110.31    74.01   15.762     16.0    33.62        4     22.4   2583.4  -999.25  -999.25    -2875  -999.25  -999.25  -999.25   191224 023333
10333.0    7563.5   109.75    74.27   14.774     15.9    33.45        4     22.1   2594.7  -999.25  -999.25    -2875  -999.25  -999.25  -999.25   191224 023406
10334.0    7563.5   113.40    74.36   14.774     15.9    34.56        4     21.8   2475.7  -999.25  -999.25    -2875  -999.25  -999.25  -999.25   191224 023441
10335.0    7563.5   105.26    73.95   15.186     15.9    32.08        4     21.5   2513.4  -999.25  -999.25    -2875  -999.25  -999.25  -999.25   191224 023515
10336.0    7563.5   113.05    74.20   15.500     16.0    34.46        4     21.2   2557.8  -999.25  -999.25    -2875  -999.25  -999.25  -999.25   191224 023547
10337.0    7563.6   117.68    73.95   15.716     16.1    35.87        4     20.9   2746.9  -999.25  -999.25    -2875  -999.25  -999.25  -999.25   191224 023618
10338.0    7563.6   122.67    75.09   15.936     15.9    37.39        4     20.6   3144.2  -999.25  -999.25    -2875  -999.25  -999.25  -999.25   191224 023646
10339.0    7563.6   163.32    73.29   16.741     16.0    49.78        5     20.3   3390.8  -999.25  -999.25    -2875  -999.25  -999.25  -999.25   191224 023708
10340.0    7563.6   169.50    73.57   16.872     15.9    51.66        5     20.0   3391.9  -999.25  -999.25    -2875  -999.25  -999.25  -999.25   191224 023729
10341.0    7563.6   167.67    74.11   16.872     15.9    51.10        5     19.7   3348.5  -999.25  -999.25    -2875  -999.25  -999.25  -999.25   191224 023752
10342.0    7563.7   164.10    73.86   16.531     16.1    50.02        5     19.4   3265.8  -999.25  -999.25    -2875  -999.25  -999.25  -999.25   191224 023814
10343.0    7563.7   162.20    73.95   17.018     16.0    49.44        5     19.0   3288.3  -999.25  -999.25    -2875  -999.25  -999.25  -999.25   191224 023837
10344.0    7563.7   159.39    74.11   16.563     16.0    48.58        5     18.7   3240.1  -999.25  -999.25    -2875  -999.25  -999.25  -999.25   191224 023901
10345.0    7563.7   153.34    73.95   16.760     15.9    46.74        5     18.4   3182.6  -999.25  -999.25    -2875  -999.25  -999.25  -999.25   191224 023926
10346.0    7563.7   154.12    74.27   17.013     16.0    46.98        4     18.1   3105.6  -999.25  -999.25    -2875  -999.25  -999.25  -999.25   191224 023950
10347.0    7563.7   149.56    74.30   16.718     16.0    45.59        4     17.8   3070.6  -999.25  -999.25    -2875  -999.25  -999.25  -999.25   191224 024017
10348.0    7563.8   135.94    73.70   16.784     16.0    41.43        4     17.5   2949.3  -999.25  -999.25    -2875  -999.25  -999.25  -999.25   191224 024044
10349.0    7563.8   137.76    74.17   16.521     16.2    41.99        4     17.2   2953.4  -999.25  -999.25    -2875  -999.25  -999.25  -999.25   191224 024110
10350.0    7563.8   152.23    74.49   17.369     16.0    46.40        5     16.9   3292.2  -999.25  -999.25    -2875  -999.25  -999.25  -999.25   191224 024133
10351.0    7563.8   172.80    73.76   16.994     15.9    52.67        5     16.6   3500.6  -999.25  -999.25    -2875  -999.25  -999.25  -999.25   191224 024154
10352.0    7563.8   173.79    74.96   16.175     16.0    52.97        5     16.3   3466.2  -999.25  -999.25    -2875  -999.25  -999.25  -999.25   191224 024217
10353.0    7563.9   163.60    73.89   16.709     15.9    49.87        5     16.0   3262.6  -999.25  -999.25    -2875  -999.25  -999.25  -999.25   191224 024240
10354.0    7563.9   160.30    73.89   15.659     15.9    48.86        4     15.7   3104.6  -999.25  -999.25    -2875  -999.25  -999.25  -999.25   191224 024304
10355.0    7563.9   154.54    73.73   16.128     16.0    47.11        5     15.4   3226.4  -999.25  -999.25    -2875  -999.25  -999.25  -999.25   191224 024327
10356.0    7563.9   178.56    74.42   16.432     15.9    54.42        5     15.1   3351.2  -999.25  -999.25    -2875  -999.25  -999.25  -999.25   191224 024350
10357.0    7563.9   177.86    74.11   16.175     16.0    54.21        5     14.8   3315.9  -999.25  -999.25    -2875  -999.25  -999.25  -999.25   191224 024410
