#Pason DataHub                     Well Dossier No:    25396325
#LAS - Log ASCII Standard         Report Generated:    2020-01-02 16:49:03CST
~VERSION INFORMATION
VERS.                                          2.0:    CWLS LOG ASCII STANDARD - VERSION 2.0
WRAP.                                           No:    ONE LINE PER DEPTH STEP
~WELL INFORMATION BLOCK
#MNEM.UNIT                                     DATA    DESCRIPTION OF MNEMONIC
#---------                                     ----    -----------------------
STRT.feet                                     58.0:    Start Depth
STOP.feet                                  17137.0:    Stop Depth
STEP.feet                                      1.0:    Step Value
NULL.                                      -999.25:    NULL Value
COMP.                         Surge Operating, LLC:    Company
WELL.                  Middleton Unit B 47-38 #8SH:    Well
FLD .                                             :    Field
LOC .                                             :    Location
CNTY.                                       Howard:    County
STAT.                                           TX:    State
CTRY.                                United States:    Country
SRVC.                             Latshaw Drilling:    Service Company
DATE.                                             :    Date
API .                                             :    API Number
RIG .                                    Latshaw 9:    Rig
NUM .                                     25396325:    Well Dossier No
~CURVE INFORMATION
#MNEM.UNIT                                 API CODE    CURVE DESCRIPTION
#---------                                 --------    -----------------
DEPT .feet                                     001:      5  Hole Depth
TVD  .feet                                     960:     50  True Vertical Depth
ROP  .ft/hr                                       :      3  Rate Of Penetration
RPM  .RPM                                         :     11  Rotary RPM
TOR  .                                            :     12  Rotary Torque
WOB  .kDaN                                        :     13  Weight on Bit
ROP  .m/hr                                        :      3  Rate Of Penetration
BITOR.kf-lbf                                      :    824  Bit Torque
BHT  .meters                                      :     28  Block Height
DIFP .kPa                                         :    123  Differential Pressure
DARW .kDaN                                        :    715  DAS Recommended WOB
DARR .RPM                                         :    716  DAS Recommended RPM
ADTPD.tick/ft                                     :    238  AutoDriller Ticks Per Depth
DBRMN.RPM                                         :    722  DAS Bit RPM Min
DARDP.kPa                                         :    731  DAS Recommended DIFFP
DRROP.m/hr                                        :    739  DAS Recommended ROP
DATE .yymmdd                                      :      0  YearMonthDay
TIME .hhmmss                                      :      0  HoursMinutesSeconds
# NOTE: Data generated with Omit Duplicate Depths enabled
~A DEPT       TVD      ROP      RPM      TOR      WOB      ROP    BITOR      BHT     DIFP     DARW     DARR    ADTPD    DBRMN    DARDP    DRROP   YYMMDD HHMMSS
# ...
12558.0    7586.6    88.04    74.14   17.008     17.8    26.84        4      4.0   2824.2  -999.25  -999.25    -2875  -999.25  -999.25  -999.25   191224 231845
12559.0    7586.6    82.73    73.38   16.526     17.7    25.21        4      3.7   2823.7  -999.25  -999.25    -2875  -999.25  -999.25  -999.25   191224 231930
12560.0    7586.7    84.40    73.35   16.503     17.6    25.72        4      3.4   2800.2  -999.25  -999.25    -2875  -999.25  -999.25  -999.25   191224 232015
12561.0    7586.7    85.87    73.76   17.247     17.8    26.17        4      3.1   2830.9  -999.25  -999.25    -2875  -999.25  -999.25  -999.25   191224 232058
12562.0    7586.7    86.86    74.46   16.798     17.7    26.47        4      2.8   2812.1  -999.25  -999.25    -2875  -999.25  -999.25  -999.25   191224 232144
12563.0    7586.7    85.35    72.88   16.830     17.7    26.01        4      2.5   2815.5  -999.25  -999.25    -2875  -999.25  -999.25  -999.25   191224 232227
12564.0    7586.8    84.74    73.13   16.521     17.8    25.83        4      2.2   2812.6  -999.25  -999.25    -2875  -999.25  -999.25  -999.25   191224 232313
12565.0    7586.8    88.32    73.38   16.587     17.7    26.92        4      1.9   2809.8  -999.25  -999.25    -2875  -999.25  -999.25  -999.25   191224 232356
12566.0    7586.8    82.80    72.97   16.629     17.7    25.24        4      1.6   2796.5  -999.25  -999.25    -2875  -999.25  -999.25  -999.25   191224 232442
12567.0    7586.9    84.00    73.38   16.605     17.8    25.60        4      1.3   2780.0  -999.25  -999.25    -2875  -999.25  -999.25  -999.25   191224 232525
12568.0    7586.9    85.37    73.51   16.605     17.8    26.02        4      1.0   2774.0  -999.25  -999.25    -2875  -999.25  -999.25  -999.25   191224 232610
12569.0    7586.9    84.16    73.10   16.933     17.8    25.65        4      0.7   2820.0  -999.25  -999.25    -2875  -999.25  -999.25  -999.25   191224 232655
12570.0    7587.0    90.51    73.13   16.573     17.7    27.59        4      0.4   2812.6  -999.25  -999.25    -2875  -999.25  -999.25  -999.25   191224 232739
12571.0    7587.0    53.63    72.88   11.720      8.9    16.35        2     27.9   1299.4  -999.25  -999.25    -2875  -999.25  -999.25  -999.25   191224 233419
12572.0    7587.0   220.06    73.51   14.872     12.9    67.07        3     27.7   1832.0  -999.25  -999.25    -2875  -999.25  -999.25  -999.25   191224 233433
12573.0    7587.0   140.82    74.68   22.035     17.1    42.92        6     26.3   4159.7  -999.25  -999.25    -2875  -999.25  -999.25  -999.25   191224 233613
12574.0    7587.1   185.09    74.11   22.470     16.9    56.42        7     26.0   4611.7  -999.25  -999.25    -2875  -999.25  -999.25  -999.25   191224 233631
12575.0    7587.1   210.66    74.05   22.540     17.3    64.21        7     25.7   4677.9  -999.25  -999.25    -2875  -999.25  -999.25  -999.25   191224 233648
12576.0    7587.1   214.08    75.43   22.025     17.5    65.25        6     25.4   4561.7  -999.25  -999.25    -2875  -999.25  -999.25  -999.25   191224 233706
12577.0    7587.2   211.41    74.58   22.456     17.4    64.44        6     25.1   4475.8  -999.25  -999.25    -2875  -999.25  -999.25  -999.25   191224 233727
12578.0    7587.2   207.07    74.83   21.810     18.1    63.12        6     24.8   4339.9  -999.25  -999.25    -2875  -999.25  -999.25  -999.25   191224 233745
12579.0    7587.2   206.37    75.59   21.852     18.2    62.90        6     24.5   4198.1  -999.25  -999.25    -2875  -999.25  -999.25  -999.25   191224 233815
12580.0    7587.2   205.24    74.52   21.243     18.1    62.56        6     24.2   4042.4  -999.25  -999.25    -2875  -999.25  -999.25  -999.25   191224 233832
12581.0    7587.3   210.01    75.84   22.091     17.5    64.01        6     23.9   4227.6  -999.25  -999.25    -2875  -999.25  -999.25  -999.25   191224 233852
12582.0    7587.3   205.81    72.88   21.800     18.2    62.73        6     23.6   4256.7  -999.25  -999.25    -2875  -999.25  -999.25  -999.25   191224 233910
12583.0    7587.3   207.70    71.46   21.500     18.5    63.31        6     23.2   4308.5  -999.25  -999.25    -2875  -999.25  -999.25  -999.25   191224 233934
12584.0    7587.4   149.89    71.96   20.095     17.8    45.69        6     22.9   3984.5  -999.25  -999.25    -2875  -999.25  -999.25  -999.25   191224 234002
12585.0    7587.4   126.67    71.80   20.076     17.7    38.61        5     22.6   3585.4  -999.25  -999.25    -2875  -999.25  -999.25  -999.25   191224 234031
12586.0    7587.4    62.42    21.06    6.666      5.9    19.02        1     22.4   1039.7  -999.25  -999.25    -2875  -999.25  -999.25  -999.25   191224 234713
12587.0    7587.5    45.94    21.66    7.504      6.2    14.00        2     22.0   1154.2  -999.25  -999.25    -2875  -999.25  -999.25  -999.25   191224 235039
12588.0    7587.5    31.91    21.88    7.148      1.7     9.73        2     21.7   1101.0  -999.25  -999.25    -2875  -999.25  -999.25  -999.25   191224 235230
12589.0    7587.5    45.62    21.72    5.897      2.2    13.90        1     21.4   1054.7  -999.25  -999.25    -2875  -999.25  -999.25  -999.25   191224 235350
12590.0    7587.5    51.18    21.82    6.417      3.9    15.60        1     21.1    910.0  -999.25  -999.25    -2875  -999.25  -999.25  -999.25   191224 235459
12591.0    7587.6    55.74    21.69    6.169      6.2    16.99        1     20.8    826.3  -999.25  -999.25    -2875  -999.25  -999.25  -999.25   191224 235606
12592.0    7587.6    55.18    21.76    6.141      7.5    16.82        1     20.5    894.9  -999.25  -999.25    -2875  -999.25  -999.25  -999.25   191224 235711
12593.0    7587.6    55.20    21.76    6.122      8.9    16.83        2     20.2   1091.6  -999.25  -999.25    -2875  -999.25  -999.25  -999.25   191224 235817
12594.0    7587.7    55.55    21.72    6.446      9.3    16.93        2     19.9   1323.1  -999.25  -999.25    -2875  -999.25  -999.25  -999.25   191224 235924
12595.0    7587.7    55.28    21.76    7.012      9.5    16.85        2     19.6   1365.5  -999.25  -999.25    -2875  -999.25  -999.25  -999.25   191225 000028
12596.0    7587.7    55.32    21.76    6.792      9.6    16.86        2     19.3   1429.2  -999.25  -999.25    -2875  -999.25  -999.25  -999.25   191225 000135
12597.0    7587.8    55.36    21.72    6.722      9.7    16.87        2     19.0   1392.5  -999.25  -999.25    -2875  -999.25  -999.25  -999.25   191225 000240
12598.0    7587.8    60.76    21.76    6.675     10.1    18.52        2     18.7   1362.5  -999.25  -999.25    -2875  -999.25  -999.25  -999.25   191225 000341
12599.0    7587.8    60.55    21.88    6.656     10.4    18.45        2     18.4   1428.0  -999.25  -999.25    -2875  -999.25  -999.25  -999.25   191225 000441
12600.0    7587.8    60.34    21.95    6.389     10.1    18.39        2     18.1   1450.5  -999.25  -999.25    -2875  -999.25  -999.25  -999.25   191225 000542
12601.0    7587.9    60.37    21.69    5.626     10.7    18.40        2     17.8   1453.5  -999.25  -999.25    -2875  -999.25  -999.25  -999.25   191225 000643
12602.0    7587.9    65.45    21.76    5.710     11.6    19.95        2     17.5   1392.5  -999.25  -999.25    -2875  -999.25  -999.25  -999.25   191225 000739
12603.0    7587.9    65.75    22.39    5.490     12.9    20.04        2     17.2   1467.9  -999.25  -999.25    -2875  -999.25  -999.25  -999.25   191225 000834
12604.0    7588.0    65.26    21.85    6.933     13.6    19.89        3     16.8   1871.6  -999.25  -999.25    -2875  -999.25  -999.25  -999.25   191225 000949
12605.0    7588.0    67.07    21.82    6.764     13.7    20.44        2     16.5   1579.1  -999.25  -999.25    -2875  -999.25  -999.25  -999.25   191225 001045
12606.0    7588.0    65.39    21.76    6.722     14.0    19.93        2     16.2   1473.5  -999.25  -999.25    -2875  -999.25  -999.25  -999.25   191225 001154
12607.0    7588.1    67.07    21.95    7.017     13.3    20.44        2     15.9   1547.9  -999.25  -999.25    -2875  -999.25  -999.25  -999.25   191225 001251
