#Pason DataHub                     Well Dossier No:    25396325
#LAS - Log ASCII Standard         Report Generated:    2020-01-02 16:49:03CST
~VERSION INFORMATION
VERS.                                          2.0:    CWLS LOG ASCII STANDARD - VERSION 2.0
WRAP.                                           No:    ONE LINE PER DEPTH STEP
~WELL INFORMATION BLOCK
#MNEM.UNIT                                     DATA    DESCRIPTION OF MNEMONIC
#---------                                     ----    -----------------------
STRT.feet                                     58.0:    Start Depth
STOP.feet                                  17137.0:    Stop Depth
STEP.feet                                      1.0:    Step Value
NULL.                                      -999.25:    NULL Value
COMP.                         Surge Operating, LLC:    Company
WELL.                  Middleton Unit B 47-38 #8SH:    Well
FLD .                                             :    Field
LOC .                                             :    Location
CNTY.                                       Howard:    County
STAT.                                           TX:    State
CTRY.                                United States:    Country
SRVC.                             Latshaw Drilling:    Service Company
DATE.                                             :    Date
API .                                             :    API Number
RIG .                                    Latshaw 9:    Rig
NUM .                                     25396325:    Well Dossier No
~CURVE INFORMATION
#MNEM.UNIT                                 API CODE    CURVE DESCRIPTION
#---------                                 --------    -----------------
DEPT .feet                                     001:      5  Hole Depth
TVD  .feet                                     960:     50  True Vertical Depth
ROP  .ft/hr                                       :      3  Rate Of Penetration
RPM  .RPM                                         :     11  Rotary RPM
TOR  .                                            :     12  Rotary Torque
WOB  .kDaN                                        :     13  Weight on Bit
ROP  .m/hr                                        :      3  Rate Of Penetration
BITOR.kf-lbf                                      :    824  Bit Torque
BHT  .meters                                      :     28  Block Height
DIFP .kPa                                         :    123  Differential Pressure
DARW .kDaN                                        :    715  DAS Recommended WOB
DARR .RPM                                         :    716  DAS Recommended RPM
ADTPD.tick/ft                                     :    238  AutoDriller Ticks Per Depth
DBRMN.RPM                                         :    722  DAS Bit RPM Min
DARDP.kPa                                         :    731  DAS Recommended DIFFP
DRROP.m/hr                                        :    739  DAS Recommended ROP
DATE .yymmdd                                      :      0  YearMonthDay
TIME .hhmmss                                      :      0  HoursMinutesSeconds
# NOTE: Data generated with Omit Duplicate Depths enabled
~A DEPT       TVD      ROP      RPM      TOR      WOB      ROP    BITOR      BHT     DIFP     DARW     DARR    ADTPD    DBRMN    DARDP    DRROP   YYMMDD HHMMSS
# ...
14858.0    7588.3    40.46    33.06    6.670      8.3    12.33        1     22.2   1003.4  -999.25  -999.25    -2875  -999.25  -999.25  -999.25   191227 033338
14859.0    7588.3    42.52    33.06    6.638      8.9    12.96        1     21.9   1004.2  -999.25  -999.25    -2875  -999.25  -999.25  -999.25   191227 033506
14860.0    7588.3    49.82    33.28    6.624      9.8    15.18        2     21.6   1145.2  -999.25  -999.25    -2875  -999.25  -999.25  -999.25   191227 033620
14861.0    7588.3    50.51    33.50    6.455      9.7    15.39        2     21.3   1213.9  -999.25  -999.25    -2875  -999.25  -999.25  -999.25   191227 033732
14862.0    7588.2    50.22    33.19    6.431      9.4    15.31        2     20.9   1195.3  -999.25  -999.25    -2875  -999.25  -999.25  -999.25   191227 033845
14863.0    7588.2    55.07    33.41    6.572     10.4    16.78        2     20.6   1130.0  -999.25  -999.25    -2875  -999.25  -999.25  -999.25   191227 033951
14864.0    7588.2    55.66    33.38    6.380     11.0    16.96        1     20.3   1040.4  -999.25  -999.25    -2875  -999.25  -999.25  -999.25   191227 034058
14865.0    7588.2    55.44    33.44    6.558     11.7    16.90        2     20.0   1168.7  -999.25  -999.25    -2875  -999.25  -999.25  -999.25   191227 034202
14866.0    7588.2    55.60    33.57    6.806     12.4    16.95        2     19.7   1296.4  -999.25  -999.25    -2875  -999.25  -999.25  -999.25   191227 034308
14867.0    7588.1    55.39    33.57    6.619     12.7    16.88        2     19.4   1312.7  -999.25  -999.25    -2875  -999.25  -999.25  -999.25   191227 034414
14868.0    7588.1    55.57    33.44    6.778     12.5    16.94        2     19.1   1280.3  -999.25  -999.25    -2875  -999.25  -999.25  -999.25   191227 034520
14869.0    7588.1    55.42    33.75    7.172     12.5    16.89        2     18.8   1312.3  -999.25  -999.25    -2875  -999.25  -999.25  -999.25   191227 034624
14870.0    7588.1    55.64    33.75    7.312     12.8    16.96        2     18.5   1341.3  -999.25  -999.25    -2875  -999.25  -999.25  -999.25   191227 034732
14871.0    7588.0    55.17    33.72    7.176     13.3    16.82        2     18.2   1246.3  -999.25  -999.25    -2875  -999.25  -999.25  -999.25   191227 034837
14872.0    7588.0    55.10    51.53    9.907     13.7    16.80        2     17.9   1322.4  -999.25  -999.25    -2875  -999.25  -999.25  -999.25   191227 034953
14873.0    7588.0    66.59    51.06   10.141     13.6    20.30        2     17.6   1414.8  -999.25  -999.25    -2875  -999.25  -999.25  -999.25   191227 035057
14874.0    7588.0    66.71    50.74    9.963     14.0    20.33        2     17.3   1406.6  -999.25  -999.25    -2875  -999.25  -999.25  -999.25   191227 035210
14875.0    7588.0    55.43    51.12    9.509     14.7    16.89        2     17.0   1449.2  -999.25  -999.25    -2875  -999.25  -999.25  -999.25   191227 035317
14876.0    7587.9    55.33    50.71    8.521     14.8    16.87        2     16.7   1506.0  -999.25  -999.25    -2875  -999.25  -999.25  -999.25   191227 035421
14877.0    7587.9    55.60    50.65    7.715     14.7    16.95        2     16.4   1553.7  -999.25  -999.25    -2875  -999.25  -999.25  -999.25   191227 035528
14878.0    7587.9    55.60    50.87    7.691     16.0    16.95        2     16.1   1368.3  -999.25  -999.25    -2875  -999.25  -999.25  -999.25   191227 035638
14879.0    7587.9    55.79    52.92    9.673     15.9    17.01        2     15.8   1265.2  -999.25  -999.25    -2875  -999.25  -999.25  -999.25   191227 035751
14880.0    7587.8    55.84    50.68    7.364     15.9    17.02        2     15.5   1274.7  -999.25  -999.25    -2875  -999.25  -999.25  -999.25   191227 035907
14881.0    7587.8   106.49    71.36   15.758      9.4    32.46        3     15.2   1772.5  -999.25  -999.25    -2875  -999.25  -999.25  -999.25   191227 040421
14882.0    7587.8   212.60    71.17   19.121     11.0    64.80        3     14.8   2083.1  -999.25  -999.25    -2875  -999.25  -999.25  -999.25   191227 040438
14883.0    7587.8   215.43    72.72   20.746     12.1    65.66        4     14.5   2812.5  -999.25  -999.25    -2875  -999.25  -999.25  -999.25   191227 040456
14884.0    7587.8   206.44    72.18   22.166     12.4    62.92        4     14.2   3119.6  -999.25  -999.25    -2875  -999.25  -999.25  -999.25   191227 040515
14885.0    7587.8   182.56    72.59   22.559     12.3    55.64        5     13.9   3446.4  -999.25  -999.25    -2875  -999.25  -999.25  -999.25   191227 040536
14886.0    7587.8   196.60    72.28   21.051     12.2    59.92        5     13.6   3527.8  -999.25  -999.25    -2875  -999.25  -999.25  -999.25   191227 040553
14887.0    7587.8   212.69    72.43   20.807     12.0    64.83        5     13.3   3555.1  -999.25  -999.25    -2875  -999.25  -999.25  -999.25   191227 040610
14888.0    7587.8   212.97    72.66   20.915     12.4    64.91        5     13.0   3481.9  -999.25  -999.25    -2875  -999.25  -999.25  -999.25   191227 040627
14889.0    7587.8   212.48    71.61   21.229     12.9    64.76        5     12.7   3338.4  -999.25  -999.25    -2875  -999.25  -999.25  -999.25   191227 040645
14890.0    7587.8   208.34    72.72   21.407     13.4    63.50        4     12.4   3135.5  -999.25  -999.25    -2875  -999.25  -999.25  -999.25   191227 040708
14891.0    7587.8   175.61    71.61   20.578     12.6    53.53        5     12.1   3245.8  -999.25  -999.25    -2875  -999.25  -999.25  -999.25   191227 040727
14892.0    7587.8   196.61    71.01   20.559     12.6    59.93        5     11.8   3182.9  -999.25  -999.25    -2875  -999.25  -999.25  -999.25   191227 040745
14893.0    7587.8   207.00    71.30   21.247     13.0    63.09        4     11.5   3179.4  -999.25  -999.25    -2875  -999.25  -999.25  -999.25   191227 040803
14894.0    7587.8   205.73    72.28   21.224     13.2    62.71        4     11.2   3071.9  -999.25  -999.25    -2875  -999.25  -999.25  -999.25   191227 040829
14895.0    7587.8   156.02    72.37   20.189     12.5    47.56        4     10.9   2915.4  -999.25  -999.25    -2875  -999.25  -999.25  -999.25   191227 040852
14896.0    7587.8   156.66    71.90   20.428     12.7    47.75        4     10.6   2852.2  -999.25  -999.25    -2875  -999.25  -999.25  -999.25   191227 040915
14897.0    7587.8   155.01    72.02   20.358     12.6    47.25        4     10.3   2842.8  -999.25  -999.25    -2875  -999.25  -999.25  -999.25   191227 040938
14898.0    7587.8   165.43    71.74   20.123     12.7    50.42        4     10.0   2889.5  -999.25  -999.25    -2875  -999.25  -999.25  -999.25   191227 041000
14899.0    7587.8   167.11    71.68   21.247     12.6    50.94        4      9.7   3103.1  -999.25  -999.25    -2875  -999.25  -999.25  -999.25   191227 041021
14900.0    7587.8   183.83    72.69   20.353     12.5    56.03        4      9.4   3082.1  -999.25  -999.25    -2875  -999.25  -999.25  -999.25   191227 041041
14901.0    7587.8   185.16    71.80   20.358     12.6    56.44        5      9.1   3186.8  -999.25  -999.25    -2875  -999.25  -999.25  -999.25   191227 041100
14902.0    7587.8   194.50    71.90   19.753     12.5    59.28        4      8.8   3147.7  -999.25  -999.25    -2875  -999.25  -999.25  -999.25   191227 041118
14903.0    7587.8   196.47    72.12   20.034     12.6    59.88        5      8.5   3193.0  -999.25  -999.25    -2875  -999.25  -999.25  -999.25   191227 041137
14904.0    7587.8   194.78    71.68   20.044     12.5    59.37        4      8.1   3163.9  -999.25  -999.25    -2875  -999.25  -999.25  -999.25   191227 041156
14905.0    7587.8   197.90    71.46   19.828     12.5    60.32        4      7.8   3161.2  -999.25  -999.25    -2875  -999.25  -999.25  -999.25   191227 041213
14906.0    7587.8   208.47    71.36   20.596     12.7    63.54        5      7.5   3260.3  -999.25  -999.25    -2875  -999.25  -999.25  -999.25   191227 041231
14907.0    7587.8   208.33    71.68   20.404     12.7    63.50        5      7.2   3284.4  -999.25  -999.25    -2875  -999.25  -999.25  -999.25   191227 041248
