#Pason DataHub                     Well Dossier No:    25396325
#LAS - Log ASCII Standard         Report Generated:    2020-01-02 16:49:03CST
~VERSION INFORMATION
VERS.                                          2.0:    CWLS LOG ASCII STANDARD - VERSION 2.0
WRAP.                                           No:    ONE LINE PER DEPTH STEP
~WELL INFORMATION BLOCK
#MNEM.UNIT                                     DATA    DESCRIPTION OF MNEMONIC
#---------                                     ----    -----------------------
STRT.feet                                     58.0:    Start Depth
STOP.feet                                  17137.0:    Stop Depth
STEP.feet                                      1.0:    Step Value
NULL.                                      -999.25:    NULL Value
COMP.                         Surge Operating, LLC:    Company
WELL.                  Middleton Unit B 47-38 #8SH:    Well
FLD .                                             :    Field
LOC .                                             :    Location
CNTY.                                       Howard:    County
STAT.                                           TX:    State
CTRY.                                United States:    Country
SRVC.                             Latshaw Drilling:    Service Company
DATE.                                             :    Date
API .                                             :    API Number
RIG .                                    Latshaw 9:    Rig
NUM .                                     25396325:    Well Dossier No
~CURVE INFORMATION
#MNEM.UNIT                                 API CODE    CURVE DESCRIPTION
#---------                                 --------    -----------------
DEPT .feet                                     001:      5  Hole Depth
TVD  .feet                                     960:     50  True Vertical Depth
ROP  .ft/hr                                       :      3  Rate Of Penetration
RPM  .RPM                                         :     11  Rotary RPM
TOR  .                                            :     12  Rotary Torque
WOB  .kDaN                                        :     13  Weight on Bit
ROP  .m/hr                                        :      3  Rate Of Penetration
BITOR.kf-lbf                                      :    824  Bit Torque
BHT  .meters                                      :     28  Block Height
DIFP .kPa                                         :    123  Differential Pressure
DARW .kDaN                                        :    715  DAS Recommended WOB
DARR .RPM                                         :    716  DAS Recommended RPM
ADTPD.tick/ft                                     :    238  AutoDriller Ticks Per Depth
DBRMN.RPM                                         :    722  DAS Bit RPM Min
DARDP.kPa                                         :    731  DAS Recommended DIFFP
DRROP.m/hr                                        :    739  DAS Recommended ROP
DATE .yymmdd                                      :      0  YearMonthDay
TIME .hhmmss                                      :      0  HoursMinutesSeconds
# NOTE: Data generated with Omit Duplicate Depths enabled
~A DEPT       TVD      ROP      RPM      TOR      WOB      ROP    BITOR      BHT     DIFP     DARW     DARR    ADTPD    DBRMN    DARDP    DRROP   YYMMDD HHMMSS
# ...
15958.0    7605.2   190.36    73.07   21.407     15.4    58.02        5      2.9   3328.5  -999.25  -999.25    -2875  -999.25  -999.25  -999.25   191227 132541
15959.0    7605.2   189.02    72.40   21.177     15.6    57.61        5      2.7   3298.8  -999.25  -999.25    -2875  -999.25  -999.25  -999.25   191227 132600
15960.0    7605.2   194.49    72.25   21.219     15.7    59.28        5      2.3   3298.3  -999.25  -999.25    -2875  -999.25  -999.25  -999.25   191227 132620
15961.0    7605.2   187.26    73.38   21.594     15.6    57.08        5      2.0   3291.2  -999.25  -999.25    -2875  -999.25  -999.25  -999.25   191227 132641
15962.0    7605.2   172.17    72.69   21.543     15.8    52.48        4      1.7   3155.5  -999.25  -999.25    -2875  -999.25  -999.25  -999.25   191227 132706
15963.0    7605.2   158.48    72.66   21.247     15.7    48.30        4      1.4   3094.0  -999.25  -999.25    -2875  -999.25  -999.25  -999.25   191227 132729
15964.0    7605.2   159.60    72.88   21.435     15.7    48.65        4      1.1   3118.2  -999.25  -999.25    -2875  -999.25  -999.25  -999.25   191227 132751
15965.0    7605.2   178.28    72.85   21.276     15.6    54.34        4      0.8   3124.0  -999.25  -999.25    -2875  -999.25  -999.25  -999.25   191227 132812
15966.0    7605.2   178.00    72.28   21.463     15.4    54.25        5      0.5   3221.2  -999.25  -999.25    -2875  -999.25  -999.25  -999.25   191227 132832
15967.0    7605.2   177.37    72.18   20.976     15.7    54.06        4      0.2   3147.6  -999.25  -999.25    -2875  -999.25  -999.25  -999.25   191227 132854
15968.0    7605.2   168.72    72.28   21.346     15.8    51.43        4     -0.1   3022.2  -999.25  -999.25    -2875  -999.25  -999.25  -999.25   191227 132918
15969.0    7605.2   110.86    73.38   15.500     10.0    33.79        2     28.2   1675.1  -999.25  -999.25    -2875  -999.25  -999.25  -999.25   191227 133518
15970.0    7605.2   236.83    73.63   18.704     12.9    72.19        3     27.9   2010.2  -999.25  -999.25    -2875  -999.25  -999.25  -999.25   191227 133533
15971.0    7605.2   243.64    73.76   21.346     15.1    74.26        3     27.6   2433.9  -999.25  -999.25    -2875  -999.25  -999.25  -999.25   191227 133549
15972.0    7605.2   240.07    73.98   22.227     15.4    73.17        4     27.3   3011.8  -999.25  -999.25    -2875  -999.25  -999.25  -999.25   191227 133609
15973.0    7605.2   173.43    74.23   22.437     15.5    52.86        5     27.0   3246.8  -999.25  -999.25    -2875  -999.25  -999.25  -999.25   191227 133632
15974.0    7605.2   164.94    75.47   22.550     15.6    50.27        5     26.7   3254.5  -999.25  -999.25    -2875  -999.25  -999.25  -999.25   191227 133657
15975.0    7605.2   153.34    74.71   22.362     15.6    46.74        4     26.4   3175.3  -999.25  -999.25    -2875  -999.25  -999.25  -999.25   191227 133719
15976.0    7605.2   163.75    73.95   22.302     15.6    49.91        5     26.1   3196.9  -999.25  -999.25    -2875  -999.25  -999.25  -999.25   191227 133743
15977.0    7605.2   154.62    74.08   22.006     15.7    47.13        5     25.8   3233.9  -999.25  -999.25    -2875  -999.25  -999.25  -999.25   191227 133806
15978.0    7605.2   154.12    74.55   22.522     15.7    46.98        5     25.5   3217.5  -999.25  -999.25    -2875  -999.25  -999.25  -999.25   191227 133831
15979.0    7605.2   162.97    74.01   22.011     15.6    49.67        5     25.2   3224.9  -999.25  -999.25    -2875  -999.25  -999.25  -999.25   191227 133852
15980.0    7605.2   159.95    74.17   21.828     16.0    48.75        5     24.9   3234.2  -999.25  -999.25    -2875  -999.25  -999.25  -999.25   191227 133917
15981.0    7605.2   151.24    74.39   21.388     15.9    46.10        5     24.6   3189.2  -999.25  -999.25    -2875  -999.25  -999.25  -999.25   191227 133941
15982.0    7605.2   174.63    74.52   22.077     15.3    53.23        5     24.2   3226.9  -999.25  -999.25    -2875  -999.25  -999.25  -999.25   191227 134003
15983.0    7605.2   179.75    74.83   22.236     15.4    54.79        5     23.9   3384.3  -999.25  -999.25    -2875  -999.25  -999.25  -999.25   191227 134021
15984.0    7605.2   188.88    74.80   22.348     15.3    57.57        5     23.6   3344.6  -999.25  -999.25    -2875  -999.25  -999.25  -999.25   191227 134043
15985.0    7605.2   180.67    74.49   22.137     15.6    55.07        5     23.3   3364.7  -999.25  -999.25    -2875  -999.25  -999.25  -999.25   191227 134104
15986.0    7605.2   177.58    74.17   21.744     15.6    54.13        5     23.0   3260.7  -999.25  -999.25    -2875  -999.25  -999.25  -999.25   191227 134126
15987.0    7605.2   174.00    74.46   21.824     15.5    53.03        4     22.7   3157.8  -999.25  -999.25    -2875  -999.25  -999.25  -999.25   191227 134146
15988.0    7605.2   176.95    74.46   22.152     15.6    53.93        4     22.4   3157.8  -999.25  -999.25    -2875  -999.25  -999.25  -999.25   191227 134207
15989.0    7605.2   181.44    74.33   21.397     15.7    55.30        4     22.1   3070.4  -999.25  -999.25    -2875  -999.25  -999.25  -999.25   191227 134229
15990.0    7605.2   163.47    74.90   22.152     15.7    49.82        4     21.8   3083.9  -999.25  -999.25    -2875  -999.25  -999.25  -999.25   191227 134255
15991.0    7605.2    35.33    56.62   10.736     13.8    10.77        1     21.5    875.0  -999.25  -999.25    -2875  -999.25  -999.25  -999.25   191227 135113
15992.0    7605.2    35.35    56.27    8.970     14.3    10.77        1     21.2   1049.2  -999.25  -999.25    -2875  -999.25  -999.25  -999.25   191227 135256
15993.0    7605.2    35.42    56.43    8.029     16.3    10.80        2     20.9   1064.9  -999.25  -999.25    -2875  -999.25  -999.25  -999.25   191227 135439
15994.0    7605.3    35.28    56.55    7.392     17.0    10.75        2     20.6   1119.5  -999.25  -999.25    -2875  -999.25  -999.25  -999.25   191227 135623
15995.0    7605.3    38.12    56.87    7.139     18.0    11.62        2     20.3   1158.5  -999.25  -999.25    -2875  -999.25  -999.25  -999.25   191227 135759
15996.0    7605.3    40.51    56.46    6.998     19.9    12.35        2     20.0   1465.2  -999.25  -999.25    -2875  -999.25  -999.25  -999.25   191227 135931
15997.0    7605.3    40.15    56.20    8.333     20.4    12.24        3     19.7   2362.3  -999.25  -999.25    -2875  -999.25  -999.25  -999.25   191227 140146
15998.0    7605.3    40.11    55.98    7.303     15.6    12.22        2     19.4   1745.3  -999.25  -999.25    -2875  -999.25  -999.25  -999.25   191227 140316
15999.0    7605.3    40.27    56.11    6.478     16.0    12.27        2     19.1   1500.5  -999.25  -999.25    -2875  -999.25  -999.25  -999.25   191227 140447
16000.0    7605.3    42.59    56.36    6.666     16.6    12.98        2     18.8   1411.8  -999.25  -999.25    -2875  -999.25  -999.25  -999.25   191227 140612
16001.0    7605.3    45.15    56.11    7.485     17.1    13.76        3     18.5   1796.1  -999.25  -999.25    -2875  -999.25  -999.25  -999.25   191227 140734
16002.0    7605.3    45.82    56.17    7.481     16.8    13.97        2     18.2   1684.8  -999.25  -999.25    -2875  -999.25  -999.25  -999.25   191227 140853
16003.0    7605.3    45.39    55.92    7.663     18.7    13.84        2     17.9   1648.2  -999.25  -999.25    -2875  -999.25  -999.25  -999.25   191227 141014
16004.0    7605.3    45.18    56.11    6.408     19.5    13.77        2     17.5   1463.8  -999.25  -999.25    -2875  -999.25  -999.25  -999.25   191227 141135
16005.0    7605.3    45.22    56.17    8.778     19.8    13.78        2     17.2   1705.8  -999.25  -999.25    -2875  -999.25  -999.25  -999.25   191227 141254
16006.0    7605.3    51.93    56.30    8.586     18.8    15.83        3     16.9   1864.5  -999.25  -999.25    -2875  -999.25  -999.25  -999.25   191227 141416
16007.0    7605.3    17.44    72.97   13.626      6.5     5.32        1     16.4    765.4  -999.25  -999.25    -2875  -999.25  -999.25  -999.25   191227 141925
