#Pason DataHub                     Well Dossier No:    25396325
#LAS - Log ASCII Standard         Report Generated:    2020-01-02 16:49:03CST
~VERSION INFORMATION
VERS.                                          2.0:    CWLS LOG ASCII STANDARD - VERSION 2.0
WRAP.                                           No:    ONE LINE PER DEPTH STEP
~WELL INFORMATION BLOCK
#MNEM.UNIT                                     DATA    DESCRIPTION OF MNEMONIC
#---------                                     ----    -----------------------
STRT.feet                                     58.0:    Start Depth
STOP.feet                                  17137.0:    Stop Depth
STEP.feet                                      1.0:    Step Value
NULL.                                      -999.25:    NULL Value
COMP.                         Surge Operating, LLC:    Company
WELL.                  Middleton Unit B 47-38 #8SH:    Well
FLD .                                             :    Field
LOC .                                             :    Location
CNTY.                                       Howard:    County
STAT.                                           TX:    State
CTRY.                                United States:    Country
SRVC.                             Latshaw Drilling:    Service Company
DATE.                                             :    Date
API .                                             :    API Number
RIG .                                    Latshaw 9:    Rig
NUM .                                     25396325:    Well Dossier No
~CURVE INFORMATION
#MNEM.UNIT                                 API CODE    CURVE DESCRIPTION
#---------                                 --------    -----------------
DEPT .feet                                     001:      5  Hole Depth
TVD  .feet                                     960:     50  True Vertical Depth
ROP  .ft/hr                                       :      3  Rate Of Penetration
RPM  .RPM                                         :     11  Rotary RPM
TOR  .                                            :     12  Rotary Torque
WOB  .kDaN                                        :     13  Weight on Bit
ROP  .m/hr                                        :      3  Rate Of Penetration
BITOR.kf-lbf                                      :    824  Bit Torque
BHT  .meters                                      :     28  Block Height
DIFP .kPa                                         :    123  Differential Pressure
DARW .kDaN                                        :    715  DAS Recommended WOB
DARR .RPM                                         :    716  DAS Recommended RPM
ADTPD.tick/ft                                     :    238  AutoDriller Ticks Per Depth
DBRMN.RPM                                         :    722  DAS Bit RPM Min
DARDP.kPa                                         :    731  DAS Recommended DIFFP
DRROP.m/hr                                        :    739  DAS Recommended ROP
DATE .yymmdd                                      :      0  YearMonthDay
TIME .hhmmss                                      :      0  HoursMinutesSeconds
# NOTE: Data generated with Omit Duplicate Depths enabled
~A DEPT       TVD      ROP      RPM      TOR      WOB      ROP    BITOR      BHT     DIFP     DARW     DARR    ADTPD    DBRMN    DARDP    DRROP   YYMMDD HHMMSS
# ...
17108.0   -999.25   171.12    70.41   18.933     13.5    52.16        3      8.2   1901.7  -999.25  -999.25    -2875  -999.25  -999.25  -999.25   191228 012239
17109.0   -999.25   172.66    70.95   18.821     13.7    52.63        3      7.9   2192.6  -999.25  -999.25    -2875  -999.25  -999.25  -999.25   191228 012323
17110.0   -999.25   149.41    70.10   20.053     15.3    45.54        3      7.6   2186.4  -999.25  -999.25    -2875  -999.25  -999.25  -999.25   191228 012344
17111.0   -999.25   181.29    70.60   20.334     15.9    55.26        3      7.3   2207.8  -999.25  -999.25    -2875  -999.25  -999.25  -999.25   191228 012420
17112.0   -999.25   100.76    70.29   20.264     15.8    30.71        3      7.0   2155.8  -999.25  -999.25    -2875  -999.25  -999.25  -999.25   191228 012501
17113.0   -999.25    94.51    71.46   21.866     16.0    28.81        4      6.6   2531.3  -999.25  -999.25    -2875  -999.25  -999.25  -999.25   191228 012540
17114.0   -999.25    99.78    71.68   21.753     15.6    30.41        4      6.3   2571.6  -999.25  -999.25    -2875  -999.25  -999.25  -999.25   191228 012616
17115.0   -999.25   108.77    71.39   21.828     15.6    33.15        4      6.0   2521.3  -999.25  -999.25    -2875  -999.25  -999.25  -999.25   191228 012649
17116.0   -999.25   106.31    71.58   21.655     15.9    32.40        4      5.7   2567.7  -999.25  -999.25    -2875  -999.25  -999.25  -999.25   191228 012733
17117.0   -999.25   110.59    70.38   19.838     15.7    33.71        4      5.4   2488.9  -999.25  -999.25    -2875  -999.25  -999.25  -999.25   191228 012809
17118.0   -999.25   129.55    70.73   20.433     15.7    39.49        3      5.1   2338.3  -999.25  -999.25    -2875  -999.25  -999.25  -999.25   191228 012835
17119.0   -999.25   161.50    71.27   22.494     16.2    49.22        3      4.8   2465.3  -999.25  -999.25    -2875  -999.25  -999.25  -999.25   191228 012906
17120.0   -999.25   107.85    71.20   21.819     15.9    32.87        4      4.5   2483.8  -999.25  -999.25    -2875  -999.25  -999.25  -999.25   191228 012942
17121.0   -999.25   104.13    70.92   21.683     16.1    31.74        3      4.2   2332.6  -999.25  -999.25    -2875  -999.25  -999.25  -999.25   191228 013018
17122.0   -999.25   103.95    71.36   21.945     16.1    31.68        3      3.9   2104.5  -999.25  -999.25    -2875  -999.25  -999.25  -999.25   191228 013055
17123.0   -999.25    96.83    70.73   21.070     16.2    29.51        3      3.6   2217.1  -999.25  -999.25    -2875  -999.25  -999.25  -999.25   191228 013136
17124.0   -999.25   100.27    71.71   22.091     16.0    30.56        4      3.3   2590.3  -999.25  -999.25    -2875  -999.25  -999.25  -999.25   191228 013213
17125.0   -999.25   107.29    72.02   21.992     15.9    32.70        4      3.0   2658.6  -999.25  -999.25    -2875  -999.25  -999.25  -999.25   191228 013247
17126.0   -999.25   108.27    71.30   21.599     15.9    33.00        4      2.7   2586.4  -999.25  -999.25    -2875  -999.25  -999.25  -999.25   191228 013322
17127.0   -999.25   107.78    70.95   21.735     16.2    32.85        3      2.4   2449.5  -999.25  -999.25    -2875  -999.25  -999.25  -999.25   191228 013355
17128.0   -999.25   114.58    71.14   21.585     16.6    34.92        3      2.1   2366.6  -999.25  -999.25    -2875  -999.25  -999.25  -999.25   191228 013433
17129.0   -999.25    94.44    70.86   22.020     16.7    28.78        3      1.8   2324.7  -999.25  -999.25    -2875  -999.25  -999.25  -999.25   191228 013514
17130.0   -999.25    96.69    71.20   22.709     16.3    29.47        4      1.5   2795.1  -999.25  -999.25    -2875  -999.25  -999.25  -999.25   191228 013551
17131.0   -999.25   122.95    72.91   22.283     15.6    37.48        4      1.2   2992.3  -999.25  -999.25    -2875  -999.25  -999.25  -999.25   191228 013621
17132.0   -999.25   126.18    72.78   22.325     15.1    38.46        5      0.9   3203.1  -999.25  -999.25    -2875  -999.25  -999.25  -999.25   191228 013650
17133.0   -999.25   163.25    72.21   20.831     15.4    49.76        5      0.6   3185.0  -999.25  -999.25    -2875  -999.25  -999.25  -999.25   191228 013709
17134.0   -999.25   204.11    71.46   21.861     16.3    62.21        4      0.2   2921.6  -999.25  -999.25    -2875  -999.25  -999.25  -999.25   191228 013729
17135.0   -999.25   336.90     0.00    0.000     53.9   102.69      -15     24.8 -10868.3  -999.25  -999.25    -2875  -999.25  -999.25  -999.25   191229 053411
17136.0   -999.25    90.36     0.00    0.000     21.2    27.54      -34     10.3 -23870.6  -999.25  -999.25    -2875  -999.25  -999.25  -999.25   191229 035032
17137.0   -999.25   203.05     0.00    0.000     21.5    61.89      -34     10.0 -23870.6  -999.25  -999.25    -2875  -999.25  -999.25  -999.25   191229 035039
