#Pason DataHub                     Well Dossier No:    25396325
#LAS - Log ASCII Standard         Report Generated:    2020-01-02 16:49:03CST
~VERSION INFORMATION
VERS.                                          2.0:    CWLS LOG ASCII STANDARD - VERSION 2.0
WRAP.                                           No:    ONE LINE PER DEPTH STEP
~WELL INFORMATION BLOCK
#MNEM.UNIT                                     DATA    DESCRIPTION OF MNEMONIC
#---------                                     ----    -----------------------
STRT.feet                                     58.0:    Start Depth
STOP.feet                                  17137.0:    Stop Depth
STEP.feet                                      1.0:    Step Value
NULL.                                      -999.25:    NULL Value
COMP.                         Surge Operating, LLC:    Company
WELL.                  Middleton Unit B 47-38 #8SH:    Well
FLD .                                             :    Field
LOC .                                             :    Location
CNTY.                                       Howard:    County
STAT.                                           TX:    State
CTRY.                                United States:    Country
SRVC.                             Latshaw Drilling:    Service Company
DATE.                                             :    Date
API .                                             :    API Number
RIG .                                    Latshaw 9:    Rig
NUM .                                     25396325:    Well Dossier No
~CURVE INFORMATION
#MNEM.UNIT                                 API CODE    CURVE DESCRIPTION
#---------                                 --------    -----------------
DEPT .feet                                     001:      5  Hole Depth
TVD  .feet                                     960:     50  True Vertical Depth
ROP  .ft/hr                                       :      3  Rate Of Penetration
RPM  .RPM                                         :     11  Rotary RPM
TOR  .                                            :     12  Rotary Torque
WOB  .kDaN                                        :     13  Weight on Bit
ROP  .m/hr                                        :      3  Rate Of Penetration
BITOR.kf-lbf                                      :    824  Bit Torque
BHT  .meters                                      :     28  Block Height
DIFP .kPa                                         :    123  Differential Pressure
DARW .kDaN                                        :    715  DAS Recommended WOB
DARR .RPM                                         :    716  DAS Recommended RPM
ADTPD.tick/ft                                     :    238  AutoDriller Ticks Per Depth
DBRMN.RPM                                         :    722  DAS Bit RPM Min
DARDP.kPa                                         :    731  DAS Recommended DIFFP
DRROP.m/hr                                        :    739  DAS Recommended ROP
DATE .yymmdd                                      :      0  YearMonthDay
TIME .hhmmss                                      :      0  HoursMinutesSeconds
# NOTE: Data generated with Omit Duplicate Depths enabled
~A DEPT       TVD      ROP      RPM      TOR      WOB      ROP    BITOR      BHT     DIFP     DARW     DARR    ADTPD    DBRMN    DARDP    DRROP   YYMMDD HHMMSS
# ...
13708.0    7586.5   105.40    74.05   18.770     17.2    32.13        4     27.2   2744.9  -999.25  -999.25    -2875  -999.25  -999.25  -999.25   191225 124645
13709.0    7586.5    98.29    73.70   18.540     17.3    29.96        4     26.9   2631.2  -999.25  -999.25    -2875  -999.25  -999.25  -999.25   191225 124722
13710.0    7586.5   115.42    73.45   19.411     17.2    35.18        4     26.6   3037.9  -999.25  -999.25    -2875  -999.25  -999.25  -999.25   191225 124754
13711.0    7586.5   128.43    73.38   19.402     17.1    39.14        4     26.2   3086.7  -999.25  -999.25    -2875  -999.25  -999.25  -999.25   191225 124824
13712.0    7586.5   125.97    74.74   19.599     17.2    38.40        4     25.9   3110.7  -999.25  -999.25    -2875  -999.25  -999.25  -999.25   191225 124854
13713.0    7586.4   123.01    74.20   19.500     17.2    37.49        4     25.6   3122.7  -999.25  -999.25    -2875  -999.25  -999.25  -999.25   191225 124924
13714.0    7586.4   123.30    73.63   18.666     17.3    37.58        4     25.3   2842.0  -999.25  -999.25    -2875  -999.25  -999.25  -999.25   191225 124958
13715.0    7586.4   113.11    74.01   18.367     17.4    34.48        4     25.0   2823.3  -999.25  -999.25    -2875  -999.25  -999.25  -999.25   191225 125039
13716.0    7586.4   112.00    73.79   18.081     17.1    34.14        4     24.7   2690.3  -999.25  -999.25    -2875  -999.25  -999.25  -999.25   191225 125113
13717.0    7586.4   144.08    73.70   19.538     17.3    43.92        4     24.4   3046.0  -999.25  -999.25    -2875  -999.25  -999.25  -999.25   191225 125140
13718.0    7586.4   134.39    73.60   19.378     17.4    40.96        4     24.1   3138.4  -999.25  -999.25    -2875  -999.25  -999.25  -999.25   191225 125210
13719.0    7586.4   120.35    74.36   19.439     17.3    36.68        4     23.8   3059.1  -999.25  -999.25    -2875  -999.25  -999.25  -999.25   191225 125243
13720.0    7586.3   115.03    73.26   18.615     17.0    35.06        4     23.5   2936.8  -999.25  -999.25    -2875  -999.25  -999.25  -999.25   191225 125316
13721.0    7586.3   113.67    73.35   18.845     17.1    34.65        4     23.2   2802.8  -999.25  -999.25    -2875  -999.25  -999.25  -999.25   191225 125348
13722.0    7586.3   113.75    73.76   19.463     17.2    34.67        4     22.9   2934.7  -999.25  -999.25    -2875  -999.25  -999.25  -999.25   191225 125420
13723.0    7586.3   120.08    73.57   19.140     17.1    36.60        4     22.6   3161.6  -999.25  -999.25    -2875  -999.25  -999.25  -999.25   191225 125451
13724.0    7586.3   138.95    73.54   19.772     17.3    42.35        5     22.3   3214.8  -999.25  -999.25    -2875  -999.25  -999.25  -999.25   191225 125516
13725.0    7586.3   143.31    74.42   20.362     17.4    43.68        5     22.0   3393.2  -999.25  -999.25    -2875  -999.25  -999.25  -999.25   191225 125542
13726.0    7586.3    38.33    39.12    8.507      6.6    11.68        1     21.7    816.6  -999.25  -999.25    -2875  -999.25  -999.25  -999.25   191225 130313
13727.0    7586.3    38.37    39.19    8.183      8.3    11.69        1     21.4   1018.3  -999.25  -999.25    -2875  -999.25  -999.25  -999.25   191225 130450
13728.0    7586.2    38.20    39.25    8.024      9.7    11.64        2     21.1   1105.7  -999.25  -999.25    -2875  -999.25  -999.25  -999.25   191225 130623
13729.0    7586.2    38.35    39.63    7.827     10.3    11.69        2     20.8   1286.0  -999.25  -999.25    -2875  -999.25  -999.25  -999.25   191225 130800
13730.0    7586.2    38.31    39.38    7.977     10.6    11.68        2     20.5   1359.3  -999.25  -999.25    -2875  -999.25  -999.25  -999.25   191225 130934
13731.0    7586.2    39.23    39.41    7.841     10.6    11.96        2     20.2   1462.2  -999.25  -999.25    -2875  -999.25  -999.25  -999.25   191225 131107
13732.0    7586.2    40.42    39.41    6.905     10.8    12.32        2     19.8   1464.0  -999.25  -999.25    -2875  -999.25  -999.25  -999.25   191225 131239
13733.0    7586.2    40.30    39.44    8.315     10.7    12.28        3     19.5   2187.9  -999.25  -999.25    -2875  -999.25  -999.25  -999.25   191225 131559
13734.0    7586.2    40.34    39.09    7.870      7.5    12.30        2     19.2   1320.5  -999.25  -999.25    -2875  -999.25  -999.25  -999.25   191225 131729
13735.0    7586.2    40.45    39.12    6.408      9.6    12.33        1     18.9   1051.3  -999.25  -999.25    -2875  -999.25  -999.25  -999.25   191225 131859
13736.0    7586.1    40.35    39.56    7.321     11.7    12.30        2     18.6   1335.9  -999.25  -999.25    -2875  -999.25  -999.25  -999.25   191225 132029
13737.0    7586.1    40.50    39.60    7.771     12.5    12.34        2     18.3   1535.1  -999.25  -999.25    -2875  -999.25  -999.25  -999.25   191225 132159
13738.0    7586.1    40.56    39.41    7.682     14.4    12.36        2     18.0   1550.4  -999.25  -999.25    -2875  -999.25  -999.25  -999.25   191225 132330
13739.0    7586.1    40.26    39.60    8.661     15.2    12.27        3     17.7   1858.2  -999.25  -999.25    -2875  -999.25  -999.25  -999.25   191225 132548
13740.0    7586.1    38.31    39.22    7.649     11.1    11.68        2     17.4   1555.1  -999.25  -999.25    -2875  -999.25  -999.25  -999.25   191225 132722
13741.0    7586.1    38.19    40.64    8.226     11.5    11.64        2     17.1   1710.0  -999.25  -999.25    -2875  -999.25  -999.25  -999.25   191225 132857
13742.0    7586.1    38.26    39.66    6.516      8.5    11.66        3     16.8   1967.0  -999.25  -999.25    -2875  -999.25  -999.25  -999.25   191225 133102
13743.0    7586.0    38.89    39.06    6.385      7.5    11.85        3     16.5   1951.4  -999.25  -999.25    -2875  -999.25  -999.25  -999.25   191225 133312
13744.0    7586.0    39.28    38.87    8.099      7.2    11.97        3     16.2   2009.5  -999.25  -999.25    -2875  -999.25  -999.25  -999.25   191225 133446
13745.0    7586.0    38.29    39.22    7.860      7.4    11.67        3     15.9   1894.3  -999.25  -999.25    -2875  -999.25  -999.25  -999.25   191225 133622
13746.0    7586.0    38.33    39.00    6.698      8.0    11.68        2     15.6   1463.0  -999.25  -999.25    -2875  -999.25  -999.25  -999.25   191225 133757
13747.0    7586.0    38.36    38.71    7.186      8.0    11.69        2     15.3   1520.4  -999.25  -999.25    -2875  -999.25  -999.25  -999.25   191225 133932
13748.0    7586.0    38.37    38.93    7.069      8.2    11.69        2     15.0   1692.2  -999.25  -999.25    -2875  -999.25  -999.25  -999.25   191225 134108
13749.0    7586.0    38.31    39.19    6.825      8.7    11.68        2     14.7   1746.7  -999.25  -999.25    -2875  -999.25  -999.25  -999.25   191225 134241
13750.0    7586.0    38.22    39.15    6.773      9.2    11.65        3     14.4   1951.8  -999.25  -999.25    -2875  -999.25  -999.25  -999.25   191225 134421
13751.0    7586.0   128.86    71.74   18.704     12.2    39.28        2     14.1   1347.9  -999.25  -999.25    -2875  -999.25  -999.25  -999.25   191225 134814
13752.0    7586.0   202.93    77.52   22.957     15.3    61.85        2     13.8   1388.5  -999.25  -999.25    -2875  -999.25  -999.25  -999.25   191225 134835
13753.0    7586.1   191.13    74.83   22.704     16.1    58.26        3     13.4   2441.9  -999.25  -999.25    -2875  -999.25  -999.25  -999.25   191225 134908
13754.0    7586.1   135.11    72.56   20.985     16.3    41.18        4     13.1   2762.0  -999.25  -999.25    -2875  -999.25  -999.25  -999.25   191225 134931
13755.0    7586.1   182.36    71.52   21.758     17.3    55.58        5     12.8   3724.1  -999.25  -999.25    -2875  -999.25  -999.25  -999.25   191225 134956
13756.0    7586.1   145.38    73.26   22.967     17.7    44.31        7     12.5   5144.9  -999.25  -999.25    -2875  -999.25  -999.25  -999.25   191225 135028
13757.0    7586.1   159.41    72.06   20.887     17.3    48.59        5     12.2   3806.7  -999.25  -999.25    -2875  -999.25  -999.25  -999.25   191225 135051
