#Pason DataHub                     Well Dossier No:    25396325
#LAS - Log ASCII Standard         Report Generated:    2020-01-02 16:49:03CST
~VERSION INFORMATION
VERS.                                          2.0:    CWLS LOG ASCII STANDARD - VERSION 2.0
WRAP.                                           No:    ONE LINE PER DEPTH STEP
~WELL INFORMATION BLOCK
#MNEM.UNIT                                     DATA    DESCRIPTION OF MNEMONIC
#---------                                     ----    -----------------------
STRT.feet                                     58.0:    Start Depth
STOP.feet                                  17137.0:    Stop Depth
STEP.feet                                      1.0:    Step Value
NULL.                                      -999.25:    NULL Value
COMP.                         Surge Operating, LLC:    Company
WELL.                  Middleton Unit B 47-38 #8SH:    Well
FLD .                                             :    Field
LOC .                                             :    Location
CNTY.                                       Howard:    County
STAT.                                           TX:    State
CTRY.                                United States:    Country
SRVC.                             Latshaw Drilling:    Service Company
DATE.                                             :    Date
API .                                             :    API Number
RIG .                                    Latshaw 9:    Rig
NUM .                                     25396325:    Well Dossier No
~CURVE INFORMATION
#MNEM.UNIT                                 API CODE    CURVE DESCRIPTION
#---------                                 --------    -----------------
DEPT .feet                                     001:      5  Hole Depth
TVD  .feet                                     960:     50  True Vertical Depth
ROP  .ft/hr                                       :      3  Rate Of Penetration
RPM  .RPM                                         :     11  Rotary RPM
TOR  .                                            :     12  Rotary Torque
WOB  .kDaN                                        :     13  Weight on Bit
ROP  .m/hr                                        :      3  Rate Of Penetration
BITOR.kf-lbf                                      :    824  Bit Torque
BHT  .meters                                      :     28  Block Height
DIFP .kPa                                         :    123  Differential Pressure
DARW .kDaN                                        :    715  DAS Recommended WOB
DARR .RPM                                         :    716  DAS Recommended RPM
ADTPD.tick/ft                                     :    238  AutoDriller Ticks Per Depth
DBRMN.RPM                                         :    722  DAS Bit RPM Min
DARDP.kPa                                         :    731  DAS Recommended DIFFP
DRROP.m/hr                                        :    739  DAS Recommended ROP
DATE .yymmdd                                      :      0  YearMonthDay
TIME .hhmmss                                      :      0  HoursMinutesSeconds
# NOTE: Data generated with Omit Duplicate Depths enabled
~A DEPT       TVD      ROP      RPM      TOR      WOB      ROP    BITOR      BHT     DIFP     DARW     DARR    ADTPD    DBRMN    DARDP    DRROP   YYMMDD HHMMSS
# ...
3458.0     3451.7   144.01    64.13    9.757     14.5    43.89        7     27.5   2948.1  -999.25  -999.25    -2875  -999.25  -999.25  -999.25   191205 211345
3459.0     3452.7   110.59    66.62   10.212     14.2    33.71        7     27.2   2942.2  -999.25  -999.25    -2875  -999.25  -999.25  -999.25   191205 211423
3460.0     3453.7    90.70    63.78    8.497     16.4    27.65        4     26.9   1856.8  -999.25  -999.25    -2875  -999.25  -999.25  -999.25   191205 211520
3461.0     3454.7    97.57    67.48   12.755     19.1    29.74        8     26.6   3415.9  -999.25  -999.25    -2875  -999.25  -999.25  -999.25   191205 211555
3462.0     3455.7   117.96    73.13   14.694     18.1    35.95        9     26.3   3832.6  -999.25  -999.25    -2875  -999.25  -999.25  -999.25   191205 211629
3463.0     3456.7   148.93    65.20   13.210     19.0    45.39       10     26.0   4065.4  -999.25  -999.25    -2875  -999.25  -999.25  -999.25   191205 211656
3464.0     3457.7   147.31    65.87   11.921     18.8    44.90        9     25.7   3958.3  -999.25  -999.25    -2875  -999.25  -999.25  -999.25   191205 211721
3465.0     3458.7   146.61    65.84   12.085     19.1    44.69        9     25.4   3802.1  -999.25  -999.25    -2875  -999.25  -999.25  -999.25   191205 211801
3466.0     3459.7   155.04    65.87   12.348     18.6    47.26       10     25.0   4030.3  -999.25  -999.25    -2875  -999.25  -999.25  -999.25   191205 211824
3467.0     3460.7   159.95    64.86   10.694     18.9    48.75        9     24.7   3946.8  -999.25  -999.25    -2875  -999.25  -999.25  -999.25   191205 211857
3468.0     3461.7   119.44    64.13   10.746     18.5    36.41        9     24.4   3648.7  -999.25  -999.25    -2875  -999.25  -999.25  -999.25   191205 211928
3469.0     3462.7   136.29    66.94   12.259     18.1    41.54       10     24.1   4003.5  -999.25  -999.25    -2875  -999.25  -999.25  -999.25   191205 211957
3470.0     3463.7   139.80    63.25   10.900     19.0    42.61       10     23.8   4002.1  -999.25  -999.25    -2875  -999.25  -999.25  -999.25   191205 212024
3471.0     3464.7   128.99    65.14   10.577     19.4    39.32        9     23.5   3789.7  -999.25  -999.25    -2875  -999.25  -999.25  -999.25   191205 212059
3472.0     3465.7   147.26    64.57   11.495     19.1    44.88        9     23.2   3894.4  -999.25  -999.25    -2875  -999.25  -999.25  -999.25   191205 212125
3473.0     3466.7   141.50    64.95   12.001     18.9    43.13       10     22.9   3976.0  -999.25  -999.25    -2875  -999.25  -999.25  -999.25   191205 212149
3474.0     3467.7   214.08    65.36   14.783     17.9    65.25       11     22.6   4458.4  -999.25  -999.25    -2875  -999.25  -999.25  -999.25   191205 212204
3475.0     3468.7   236.68    63.75   12.680     18.9    72.14       10     22.3   3971.6  -999.25  -999.25    -2875  -999.25  -999.25  -999.25   191205 212224
3476.0     3469.6   203.79    63.63   12.661     20.1    62.12       11     22.0   4415.7  -999.25  -999.25    -2875  -999.25  -999.25  -999.25   191205 212243
3477.0     3470.7   203.02    62.58   10.502     18.5    61.88        9     21.7   3786.2  -999.25  -999.25    -2875  -999.25  -999.25  -999.25   191205 212319
3478.0     3471.6   125.69    65.99   13.327     18.7    38.31       10     21.4   4231.5  -999.25  -999.25    -2875  -999.25  -999.25  -999.25   191205 212344
3479.0     3472.6   225.94    65.96   13.800     18.4    68.87       10     21.1   4291.1  -999.25  -999.25    -2875  -999.25  -999.25  -999.25   191205 212359
3480.0     3473.6   231.76    63.37   12.394     18.5    70.64       11     20.8   4598.4  -999.25  -999.25    -2875  -999.25  -999.25  -999.25   191205 212416
3481.0     3474.6   236.63    63.50   13.055     17.9    72.12       10     20.5   4302.9  -999.25  -999.25    -2875  -999.25  -999.25  -999.25   191205 212431
3482.0     3475.6   240.83    61.86   10.099     19.4    73.41       10     20.2   3981.8  -999.25  -999.25    -2875  -999.25  -999.25  -999.25   191205 212453
3483.0     3476.6   171.34    64.26   12.652     18.9    52.23       10     19.9   4152.4  -999.25  -999.25    -2875  -999.25  -999.25  -999.25   191205 212514
3484.0     3477.6   207.68    63.31   10.713     18.4    63.30       10     19.5   4043.6  -999.25  -999.25    -2875  -999.25  -999.25  -999.25   191205 212535
3485.0     3478.6   211.79    62.33   11.584     16.4    64.55       10     19.3   4074.0  -999.25  -999.25    -2875  -999.25  -999.25  -999.25   191205 212548
3486.0     3479.6   245.34    64.95   12.638     19.5    74.78       10     18.9   4141.9  -999.25  -999.25    -2875  -999.25  -999.25  -999.25   191205 212608
3487.0     3480.6   228.06    62.77   12.160     17.0    69.51       10     18.6   4258.6  -999.25  -999.25    -2875  -999.25  -999.25  -999.25   191205 212621
3488.0     3481.6   281.14    61.32   12.029     17.2    85.69       10     18.3   4327.5  -999.25  -999.25    -2875  -999.25  -999.25  -999.25   191205 212634
3489.0     3482.6   293.22    63.18   11.181     15.9    89.37       11     18.0   4382.9  -999.25  -999.25    -2875  -999.25  -999.25  -999.25   191205 212647
3490.0     3483.6   288.94    62.20   10.586     14.1    88.07        9     17.7   3814.2  -999.25  -999.25    -2875  -999.25  -999.25  -999.25   191205 212702
3491.0     3484.6   248.57    61.79    9.837     18.3    75.76        9     17.4   3673.0  -999.25  -999.25    -2875  -999.25  -999.25  -999.25   191205 212725
3492.0     3485.6   183.63    64.76   12.441     18.2    55.97       10     17.1   4138.1  -999.25  -999.25    -2875  -999.25  -999.25  -999.25   191205 212742
3493.0     3486.6   198.44    62.30    9.888     18.1    60.48        9     16.8   3738.8  -999.25  -999.25    -2875  -999.25  -999.25  -999.25   191205 212803
3494.0     3487.6   175.58    66.12   13.434     18.4    53.52       10     16.5   3997.4  -999.25  -999.25    -2875  -999.25  -999.25  -999.25   191205 212823
3495.0     3488.6   229.63    63.94   12.404     19.4    69.99       10     16.2   4054.1  -999.25  -999.25    -2875  -999.25  -999.25  -999.25   191205 212842
3496.0     3489.6   217.95    62.58    9.640     18.6    66.43        8     15.9   3479.2  -999.25  -999.25    -2875  -999.25  -999.25  -999.25   191205 212910
3497.0     3490.6   131.94    66.21   11.280     18.7    40.22        8     15.6   3519.4  -999.25  -999.25    -2875  -999.25  -999.25  -999.25   191205 212942
3498.0     3491.6   110.73    62.71    8.909     18.5    33.75        8     15.3   3217.3  -999.25  -999.25    -2875  -999.25  -999.25  -999.25   191205 213016
3499.0     3492.6   117.95    63.47    9.462     18.4    35.95        8     15.0   3383.5  -999.25  -999.25    -2875  -999.25  -999.25  -999.25   191205 213046
3500.0     3493.6   124.21    61.41   12.615     18.1    37.86        9     14.7   3683.3  -999.25  -999.25    -2875  -999.25  -999.25  -999.25   191205 213117
3501.0     3494.6   163.47    63.59   11.673     14.8    49.82       10     14.4   4272.3  -999.25  -999.25    -2875  -999.25  -999.25  -999.25   191205 213134
3502.0     3495.6   235.57    63.50   11.322     14.4    71.80        9     14.1   3689.1  -999.25  -999.25    -2875  -999.25  -999.25  -999.25   191205 213149
3503.0     3496.6   238.88    64.16   12.596     15.1    72.81        9     13.8   3821.8  -999.25  -999.25    -2875  -999.25  -999.25  -999.25   191205 213204
3504.0     3497.6   237.12    62.43   10.394     18.1    72.27        8     13.5   3302.3  -999.25  -999.25    -2875  -999.25  -999.25  -999.25   191205 213220
3505.0     3498.6   230.80    62.55    9.673     19.4    70.35        8     13.1   3344.8  -999.25  -999.25    -2875  -999.25  -999.25  -999.25   191205 213249
3506.0     3499.6   129.55    62.05    9.607     18.8    39.49        8     12.9   3439.6  -999.25  -999.25    -2875  -999.25  -999.25  -999.25   191205 213317
3507.0     3500.6   133.20    63.44   11.008     18.6    40.60        9     12.5   3617.9  -999.25  -999.25    -2875  -999.25  -999.25  -999.25   191205 213344
