#Pason DataHub                     Well Dossier No:    25396325
#LAS - Log ASCII Standard         Report Generated:    2020-01-02 16:49:03CST
~VERSION INFORMATION
VERS.                                          2.0:    CWLS LOG ASCII STANDARD - VERSION 2.0
WRAP.                                           No:    ONE LINE PER DEPTH STEP
~WELL INFORMATION BLOCK
#MNEM.UNIT                                     DATA    DESCRIPTION OF MNEMONIC
#---------                                     ----    -----------------------
STRT.feet                                     58.0:    Start Depth
STOP.feet                                  17137.0:    Stop Depth
STEP.feet                                      1.0:    Step Value
NULL.                                      -999.25:    NULL Value
COMP.                         Surge Operating, LLC:    Company
WELL.                  Middleton Unit B 47-38 #8SH:    Well
FLD .                                             :    Field
LOC .                                             :    Location
CNTY.                                       Howard:    County
STAT.                                           TX:    State
CTRY.                                United States:    Country
SRVC.                             Latshaw Drilling:    Service Company
DATE.                                             :    Date
API .                                             :    API Number
RIG .                                    Latshaw 9:    Rig
NUM .                                     25396325:    Well Dossier No
~CURVE INFORMATION
#MNEM.UNIT                                 API CODE    CURVE DESCRIPTION
#---------                                 --------    -----------------
DEPT .feet                                     001:      5  Hole Depth
TVD  .feet                                     960:     50  True Vertical Depth
ROP  .ft/hr                                       :      3  Rate Of Penetration
RPM  .RPM                                         :     11  Rotary RPM
TOR  .                                            :     12  Rotary Torque
WOB  .kDaN                                        :     13  Weight on Bit
ROP  .m/hr                                        :      3  Rate Of Penetration
BITOR.kf-lbf                                      :    824  Bit Torque
BHT  .meters                                      :     28  Block Height
DIFP .kPa                                         :    123  Differential Pressure
DARW .kDaN                                        :    715  DAS Recommended WOB
DARR .RPM                                         :    716  DAS Recommended RPM
ADTPD.tick/ft                                     :    238  AutoDriller Ticks Per Depth
DBRMN.RPM                                         :    722  DAS Bit RPM Min
DARDP.kPa                                         :    731  DAS Recommended DIFFP
DRROP.m/hr                                        :    739  DAS Recommended ROP
DATE .yymmdd                                      :      0  YearMonthDay
TIME .hhmmss                                      :      0  HoursMinutesSeconds
# NOTE: Data generated with Omit Duplicate Depths enabled
~A DEPT       TVD      ROP      RPM      TOR      WOB      ROP    BITOR      BHT     DIFP     DARW     DARR    ADTPD    DBRMN    DARDP    DRROP   YYMMDD HHMMSS
# ...
9158.0     7562.9   375.02    72.97   17.533     17.1   114.31        7      6.2   4668.6  -999.25  -999.25    -2875  -999.25  -999.25  -999.25   191223 164057
9159.0     7562.9   374.87    73.76   16.868     17.0   114.26        7      5.9   4646.3  -999.25  -999.25    -2875  -999.25  -999.25  -999.25   191223 164108
9160.0     7563.0   347.01    73.00   17.294     16.6   105.77        6      5.6   4322.5  -999.25  -999.25    -2875  -999.25  -999.25  -999.25   191223 164119
9161.0     7563.0   351.64    73.45   17.327     16.8   107.18        6      5.3   4330.5  -999.25  -999.25    -2875  -999.25  -999.25  -999.25   191223 164130
9162.0     7563.0   347.50    74.52   17.121     16.8   105.92        6      5.0   4241.3  -999.25  -999.25    -2875  -999.25  -999.25  -999.25   191223 164144
9163.0     7563.0   285.72    73.79   16.048     16.6    87.09        6      4.7   3966.6  -999.25  -999.25    -2875  -999.25  -999.25  -999.25   191223 164200
9164.0     7563.0   238.29    73.54   15.341     16.5    72.63        5      4.4   3765.5  -999.25  -999.25    -2875  -999.25  -999.25  -999.25   191223 164216
9165.0     7563.1   232.43    73.13   15.210     16.7    70.84        5      4.1   3383.5  -999.25  -999.25    -2875  -999.25  -999.25  -999.25   191223 164233
9166.0     7563.1   207.06    72.47   14.694     16.8    63.11        5      3.8   3329.8  -999.25  -999.25    -2875  -999.25  -999.25  -999.25   191223 164253
9167.0     7563.1   192.39    73.26   14.643     16.6    58.64        5      3.5   3273.0  -999.25  -999.25    -2875  -999.25  -999.25  -999.25   191223 164315
9168.0     7563.1   180.16    72.69   14.601     15.9    54.91        5      3.2   3259.2  -999.25  -999.25    -2875  -999.25  -999.25  -999.25   191223 164334
9169.0     7563.1   187.48    72.78   14.268     16.0    57.14        5      2.9   3270.3  -999.25  -999.25    -2875  -999.25  -999.25  -999.25   191223 164355
9170.0     7563.2   181.09    73.38   14.268     15.9    55.20        4      2.6   2969.9  -999.25  -999.25    -2875  -999.25  -999.25  -999.25   191223 164415
9171.0     7563.2   173.23    73.38   13.875     16.0    52.80        4      2.3   2863.7  -999.25  -999.25    -2875  -999.25  -999.25  -999.25   191223 164437
9172.0     7563.2   169.90    72.97   14.053     16.0    51.78        4      2.0   2952.4  -999.25  -999.25    -2875  -999.25  -999.25  -999.25   191223 164458
9173.0     7563.2   170.13    73.70   14.203     16.0    51.86        4      1.7   3007.0  -999.25  -999.25    -2875  -999.25  -999.25  -999.25   191223 164519
9174.0     7563.2   169.85    73.26   13.996     16.0    51.77        4      1.4   2945.8  -999.25  -999.25    -2875  -999.25  -999.25  -999.25   191223 164542
9175.0     7563.2   169.70    73.32   15.027     15.9    51.72        5      1.1   3278.2  -999.25  -999.25    -2875  -999.25  -999.25  -999.25   191223 164603
9176.0     7563.3   171.89    73.60   15.111     15.9    52.39        5      0.8   3270.4  -999.25  -999.25    -2875  -999.25  -999.25  -999.25   191223 164624
9177.0     7563.3   175.68    73.13   15.013     15.9    53.55        4      0.5   3132.1  -999.25  -999.25    -2875  -999.25  -999.25  -999.25   191223 164644
9178.0     7563.3   176.59    73.45   15.149     15.9    53.83        5      0.1   3214.9  -999.25  -999.25    -2875  -999.25  -999.25  -999.25   191223 164706
9179.0     7563.3    27.95    73.67    7.429      5.7     8.52        0     28.4    232.5  -999.25  -999.25    -2875  -999.25  -999.25  -999.25   191223 165234
9180.0     7563.3   118.91    74.20   10.366     11.5    36.24        1     28.3    624.0  -999.25  -999.25    -2875  -999.25  -999.25  -999.25   191223 165243
9181.0     7563.4   342.87    75.75   15.355     16.4   104.51        2     28.0   1747.6  -999.25  -999.25    -2875  -999.25  -999.25  -999.25   191223 165254
9182.0     7563.4   358.10    75.12   14.825     16.1   109.15        4     27.7   2651.3  -999.25  -999.25    -2875  -999.25  -999.25  -999.25   191223 165317
9183.0     7563.4   190.29    75.28   14.554     15.9    58.00        4     27.4   2800.7  -999.25  -999.25    -2875  -999.25  -999.25  -999.25   191223 165336
9184.0     7563.4   187.83    75.25   14.516     16.1    57.25        4     27.1   2730.9  -999.25  -999.25    -2875  -999.25  -999.25  -999.25   191223 165357
9185.0     7563.4   171.50    75.25   14.723     16.1    52.27        4     26.8   2698.7  -999.25  -999.25    -2875  -999.25  -999.25  -999.25   191223 165419
9186.0     7563.4   179.34    75.53   15.097     16.0    54.66        4     26.4   2800.0  -999.25  -999.25    -2875  -999.25  -999.25  -999.25   191223 165439
9187.0     7563.5   179.27    75.50   15.046     16.1    54.64        4     26.1   2933.6  -999.25  -999.25    -2875  -999.25  -999.25  -999.25   191223 165500
9188.0     7563.5   198.28    75.28   16.207     16.4    60.44        5     25.8   3213.7  -999.25  -999.25    -2875  -999.25  -999.25  -999.25   191223 165514
9189.0     7563.5   265.55    75.18   16.118     16.7    80.94        5     25.5   3471.3  -999.25  -999.25    -2875  -999.25  -999.25  -999.25   191223 165528
9190.0     7563.5   266.04    75.15   16.503     16.9    81.09        5     25.2   3579.9  -999.25  -999.25    -2875  -999.25  -999.25  -999.25   191223 165544
9191.0     7563.5   237.48    76.38   16.029     16.6    72.38        5     24.9   3720.4  -999.25  -999.25    -2875  -999.25  -999.25  -999.25   191223 165557
9192.0     7563.6   257.28    75.21   15.809     17.0    78.42        5     24.6   3566.3  -999.25  -999.25    -2875  -999.25  -999.25  -999.25   191223 165613
9193.0     7563.6   248.42    74.77   16.001     16.7    75.72        5     24.3   3479.3  -999.25  -999.25    -2875  -999.25  -999.25  -999.25   191223 165627
9194.0     7563.6   256.29    75.09   16.399     16.6    78.12        5     24.0   3590.8  -999.25  -999.25    -2875  -999.25  -999.25  -999.25   191223 165642
9195.0     7563.6   264.16    75.02   16.858     16.8    80.52        5     23.7   3758.6  -999.25  -999.25    -2875  -999.25  -999.25  -999.25   191223 165655
9196.0     7563.6   282.34    75.21   16.671     16.6    86.06        6     23.4   3918.3  -999.25  -999.25    -2875  -999.25  -999.25  -999.25   191223 165707
9197.0     7563.6   291.18    74.65   16.437     16.6    88.75        6     23.1   3906.8  -999.25  -999.25    -2875  -999.25  -999.25  -999.25   191223 165719
9198.0     7563.7   291.67    74.99   16.535     16.6    88.90        6     22.8   3968.2  -999.25  -999.25    -2875  -999.25  -999.25  -999.25   191223 165732
9199.0     7563.7   284.23    74.80   16.999     16.6    86.63        5     22.5   3870.3  -999.25  -999.25    -2875  -999.25  -999.25  -999.25   191223 165745
9200.0     7563.7   281.64    76.03   16.957     16.6    85.84        6     22.2   3997.1  -999.25  -999.25    -2875  -999.25  -999.25  -999.25   191223 165759
9201.0     7563.7   270.97    75.84   17.065     16.7    82.59        5     21.9   3886.6  -999.25  -999.25    -2875  -999.25  -999.25  -999.25   191223 165812
9202.0     7563.7   268.93    75.02   16.713     16.7    81.97        6     21.6   3897.3  -999.25  -999.25    -2875  -999.25  -999.25  -999.25   191223 165826
9203.0     7563.8   264.50    76.13   16.685     16.8    80.62        5     21.3   3846.0  -999.25  -999.25    -2875  -999.25  -999.25  -999.25   191223 165840
9204.0     7563.8   257.06    75.09   15.833     16.6    78.35        5     21.0   3701.2  -999.25  -999.25    -2875  -999.25  -999.25  -999.25   191223 165857
9205.0     7563.8   228.62    74.77   15.725     16.6    69.68        5     20.7   3282.4  -999.25  -999.25    -2875  -999.25  -999.25  -999.25   191223 165914
9206.0     7563.8   217.25    75.34   16.015     16.6    66.22        4     20.3   3164.3  -999.25  -999.25    -2875  -999.25  -999.25  -999.25   191223 165932
9207.0     7563.8   201.87    76.03   16.353     16.6    61.53        4     20.1   3099.0  -999.25  -999.25    -2875  -999.25  -999.25  -999.25   191223 165950
