#Pason DataHub                     Well Dossier No:    25396325
#LAS - Log ASCII Standard         Report Generated:    2020-01-02 16:49:03CST
~VERSION INFORMATION
VERS.                                          2.0:    CWLS LOG ASCII STANDARD - VERSION 2.0
WRAP.                                           No:    ONE LINE PER DEPTH STEP
~WELL INFORMATION BLOCK
#MNEM.UNIT                                     DATA    DESCRIPTION OF MNEMONIC
#---------                                     ----    -----------------------
STRT.feet                                     58.0:    Start Depth
STOP.feet                                  17137.0:    Stop Depth
STEP.feet                                      1.0:    Step Value
NULL.                                      -999.25:    NULL Value
COMP.                         Surge Operating, LLC:    Company
WELL.                  Middleton Unit B 47-38 #8SH:    Well
FLD .                                             :    Field
LOC .                                             :    Location
CNTY.                                       Howard:    County
STAT.                                           TX:    State
CTRY.                                United States:    Country
SRVC.                             Latshaw Drilling:    Service Company
DATE.                                             :    Date
API .                                             :    API Number
RIG .                                    Latshaw 9:    Rig
NUM .                                     25396325:    Well Dossier No
~CURVE INFORMATION
#MNEM.UNIT                                 API CODE    CURVE DESCRIPTION
#---------                                 --------    -----------------
DEPT .feet                                     001:      5  Hole Depth
TVD  .feet                                     960:     50  True Vertical Depth
ROP  .ft/hr                                       :      3  Rate Of Penetration
RPM  .RPM                                         :     11  Rotary RPM
TOR  .                                            :     12  Rotary Torque
WOB  .kDaN                                        :     13  Weight on Bit
ROP  .m/hr                                        :      3  Rate Of Penetration
BITOR.kf-lbf                                      :    824  Bit Torque
BHT  .meters                                      :     28  Block Height
DIFP .kPa                                         :    123  Differential Pressure
DARW .kDaN                                        :    715  DAS Recommended WOB
DARR .RPM                                         :    716  DAS Recommended RPM
ADTPD.tick/ft                                     :    238  AutoDriller Ticks Per Depth
DBRMN.RPM                                         :    722  DAS Bit RPM Min
DARDP.kPa                                         :    731  DAS Recommended DIFFP
DRROP.m/hr                                        :    739  DAS Recommended ROP
DATE .yymmdd                                      :      0  YearMonthDay
TIME .hhmmss                                      :      0  HoursMinutesSeconds
# NOTE: Data generated with Omit Duplicate Depths enabled
~A DEPT       TVD      ROP      RPM      TOR      WOB      ROP    BITOR      BHT     DIFP     DARW     DARR    ADTPD    DBRMN    DARDP    DRROP   YYMMDD HHMMSS
# ...
4608.0     4599.0   142.82    62.96   13.355     18.5    43.53        9     24.6   3767.1  -999.25  -999.25    -2875  -999.25  -999.25  -999.25   191206 090559
4609.0     4600.0   165.36    61.54   11.073     18.8    50.40        8     24.3   3452.6  -999.25  -999.25    -2875  -999.25  -999.25  -999.25   191206 090624
4610.0     4601.0   139.72    62.33   11.931     18.7    42.59        9     24.0   3646.4  -999.25  -999.25    -2875  -999.25  -999.25  -999.25   191206 090652
4611.0     4602.0   169.57    64.32   13.992     18.3    51.68       10     23.7   4188.9  -999.25  -999.25    -2875  -999.25  -999.25  -999.25   191206 090709
4612.0     4603.0   203.98    62.55   13.247     19.3    62.17       10     23.4   4066.9  -999.25  -999.25    -2875  -999.25  -999.25  -999.25   191206 090733
4613.0     4604.0   167.47    62.49   13.491     18.5    51.05       10     23.1   4093.7  -999.25  -999.25    -2875  -999.25  -999.25  -999.25   191206 090800
4614.0     4605.0   180.74    63.34   13.992     17.9    55.09       10     22.8   4281.9  -999.25  -999.25    -2875  -999.25  -999.25  -999.25   191206 090815
4615.0     4606.0   235.99    62.49   13.219     18.8    71.93       10     22.5   4221.5  -999.25  -999.25    -2875  -999.25  -999.25  -999.25   191206 090834
4616.0     4607.0   220.13    62.96   12.957     18.7    67.10       10     22.2   4007.9  -999.25  -999.25    -2875  -999.25  -999.25  -999.25   191206 090850
4617.0     4608.0   204.04    61.48    9.776     19.5    62.19        8     21.9   3480.0  -999.25  -999.25    -2875  -999.25  -999.25  -999.25   191206 090930
4618.0     4609.0   121.48    62.90   11.640     18.4    37.03        8     21.6   3518.9  -999.25  -999.25    -2875  -999.25  -999.25  -999.25   191206 091003
4619.0     4610.0   132.43    64.76   13.818     18.6    40.36        9     21.3   3812.2  -999.25  -999.25    -2875  -999.25  -999.25  -999.25   191206 091028
4620.0     4611.0   174.62    61.54   12.971     18.9    53.22       10     20.9   4098.6  -999.25  -999.25    -2875  -999.25  -999.25  -999.25   191206 091048
4621.0     4612.0   187.97    63.25   12.652     18.5    57.29       10     20.6   4042.5  -999.25  -999.25    -2875  -999.25  -999.25  -999.25   191206 091122
4622.0     4613.0   156.86    62.96   13.603     18.3    47.81        9     20.3   3652.1  -999.25  -999.25    -2875  -999.25  -999.25  -999.25   191206 091140
4623.0     4614.0   206.43    64.54   13.341     18.6    62.92        9     20.0   3829.1  -999.25  -999.25    -2875  -999.25  -999.25  -999.25   191206 091203
4624.0     4615.0   162.55    62.93   12.329     18.6    49.55        8     19.7   3379.6  -999.25  -999.25    -2875  -999.25  -999.25  -999.25   191206 091227
4625.0     4616.0   163.67    63.94   11.687     18.7    49.89        8     19.4   3398.5  -999.25  -999.25    -2875  -999.25  -999.25  -999.25   191206 091254
4626.0     4616.9   124.77    64.26   12.146     18.8    38.03        8     19.1   3157.2  -999.25  -999.25    -2875  -999.25  -999.25  -999.25   191206 091327
4627.0     4618.0   177.11    62.17   13.219     18.4    53.98        9     18.8   3951.6  -999.25  -999.25    -2875  -999.25  -999.25  -999.25   191206 091343
4628.0     4618.9   227.29    65.24   13.786     19.1    69.28       10     18.5   4187.2  -999.25  -999.25    -2875  -999.25  -999.25  -999.25   191206 091404
4629.0     4620.0   194.00    61.41   13.491     18.6    59.13        8     18.2   3492.0  -999.25  -999.25    -2875  -999.25  -999.25  -999.25   191206 091428
4630.0     4620.9   212.69    63.28   14.137     18.4    64.83       10     17.9   4205.8  -999.25  -999.25    -2875  -999.25  -999.25  -999.25   191206 091443
4631.0     4622.0   229.75    62.08   11.237     19.6    70.03        9     17.6   3743.7  -999.25  -999.25    -2875  -999.25  -999.25  -999.25   191206 091510
4632.0     4622.9   146.26    62.46   11.879     19.1    44.58        8     17.3   3392.6  -999.25  -999.25    -2875  -999.25  -999.25  -999.25   191206 091536
4633.0     4624.0   145.56    63.06   11.430     18.6    44.37        8     17.0   3273.9  -999.25  -999.25    -2875  -999.25  -999.25  -999.25   191206 091608
4634.0     4624.9   123.72    64.26   11.369     18.5    37.71        7     16.7   3016.3  -999.25  -999.25    -2875  -999.25  -999.25  -999.25   191206 091640
4635.0     4626.0   113.68    62.08    9.350     18.4    34.65        7     16.4   2783.8  -999.25  -999.25    -2875  -999.25  -999.25  -999.25   191206 091717
4636.0     4626.9   104.27    64.23   11.856     18.4    31.78        7     16.1   2747.3  -999.25  -999.25    -2875  -999.25  -999.25  -999.25   191206 091754
4637.0     4628.0   106.45    63.59   11.621     18.9    32.45        7     15.8   3026.4  -999.25  -999.25    -2875  -999.25  -999.25  -999.25   191206 091829
4638.0     4628.9   105.82    62.84   10.769     18.5    32.25        7     15.5   2915.3  -999.25  -999.25    -2875  -999.25  -999.25  -999.25   191206 091906
4639.0     4630.0   107.36    63.31   12.727     18.4    32.72        7     15.2   3095.1  -999.25  -999.25    -2875  -999.25  -999.25  -999.25   191206 091941
4640.0     4630.9   103.99    64.54   10.853     18.5    31.70        7     14.9   2849.0  -999.25  -999.25    -2875  -999.25  -999.25  -999.25   191206 092019
4641.0     4631.9    99.49    62.93    9.640     18.4    30.32        7     14.6   2713.5  -999.25  -999.25    -2875  -999.25  -999.25  -999.25   191206 092059
4642.0     4632.9   110.52    62.11   10.450     18.5    33.69        8     14.2   3157.4  -999.25  -999.25    -2875  -999.25  -999.25  -999.25   191206 092130
4643.0     4633.9   122.17    62.24   10.287     18.2    37.24        8     13.9   3130.9  -999.25  -999.25    -2875  -999.25  -999.25  -999.25   191206 092201
4644.0     4634.9   121.26    62.08   10.024     18.1    36.96        8     13.6   3184.9  -999.25  -999.25    -2875  -999.25  -999.25  -999.25   191206 092231
4645.0     4635.9   121.19    62.58   10.717     18.1    36.94        8     13.3   3133.4  -999.25  -999.25    -2875  -999.25  -999.25  -999.25   191206 092302
4646.0     4636.9   136.37    62.58   11.832     18.0    41.56        8     13.0   3351.1  -999.25  -999.25    -2875  -999.25  -999.25  -999.25   191206 092327
4647.0     4637.9   170.00    63.03   12.867     18.2    51.81       10     12.7   3989.3  -999.25  -999.25    -2875  -999.25  -999.25  -999.25   191206 092349
4648.0     4638.9   170.84    62.11   12.263     18.3    52.07       10     12.4   4136.4  -999.25  -999.25    -2875  -999.25  -999.25  -999.25   191206 092411
4649.0     4639.9   174.91    60.91   13.748     18.3    53.31        9     12.1   3955.1  -999.25  -999.25    -2875  -999.25  -999.25  -999.25   191206 092429
4650.0     4640.9   217.74    63.31   13.097     19.2    66.37       10     11.8   4276.2  -999.25  -999.25    -2875  -999.25  -999.25  -999.25   191206 092450
4651.0     4641.9   201.23    62.65   12.273     18.6    61.34        9     11.5   3638.8  -999.25  -999.25    -2875  -999.25  -999.25  -999.25   191206 092516
4652.0     4642.9   138.19    64.60   12.755     18.7    42.12        8     11.2   3520.2  -999.25  -999.25    -2875  -999.25  -999.25  -999.25   191206 092549
4653.0     4643.9   177.65    61.60   13.163     17.5    54.15       10     10.9   3973.7  -999.25  -999.25    -2875  -999.25  -999.25  -999.25   191206 092605
4654.0     4644.9   232.07    61.89   13.439     18.5    70.73       10     10.6   4235.4  -999.25  -999.25    -2875  -999.25  -999.25  -999.25   191206 092623
4655.0     4645.9   229.77    61.16   12.404     19.6    70.03       10     10.3   4358.4  -999.25  -999.25    -2875  -999.25  -999.25  -999.25   191206 092644
4656.0     4646.9   211.15    62.27   12.315     19.0    64.36       10     10.0   4167.1  -999.25  -999.25    -2875  -999.25  -999.25  -999.25   191206 092704
4657.0     4647.9   199.98    62.58   12.577     18.6    60.95       10      9.7   4181.0  -999.25  -999.25    -2875  -999.25  -999.25  -999.25   191206 092725
