#Pason DataHub                     Well Dossier No:    25396325
#LAS - Log ASCII Standard         Report Generated:    2020-01-02 16:49:03CST
~VERSION INFORMATION
VERS.                                          2.0:    CWLS LOG ASCII STANDARD - VERSION 2.0
WRAP.                                           No:    ONE LINE PER DEPTH STEP
~WELL INFORMATION BLOCK
#MNEM.UNIT                                     DATA    DESCRIPTION OF MNEMONIC
#---------                                     ----    -----------------------
STRT.feet                                     58.0:    Start Depth
STOP.feet                                  17137.0:    Stop Depth
STEP.feet                                      1.0:    Step Value
NULL.                                      -999.25:    NULL Value
COMP.                         Surge Operating, LLC:    Company
WELL.                  Middleton Unit B 47-38 #8SH:    Well
FLD .                                             :    Field
LOC .                                             :    Location
CNTY.                                       Howard:    County
STAT.                                           TX:    State
CTRY.                                United States:    Country
SRVC.                             Latshaw Drilling:    Service Company
DATE.                                             :    Date
API .                                             :    API Number
RIG .                                    Latshaw 9:    Rig
NUM .                                     25396325:    Well Dossier No
~CURVE INFORMATION
#MNEM.UNIT                                 API CODE    CURVE DESCRIPTION
#---------                                 --------    -----------------
DEPT .feet                                     001:      5  Hole Depth
TVD  .feet                                     960:     50  True Vertical Depth
ROP  .ft/hr                                       :      3  Rate Of Penetration
RPM  .RPM                                         :     11  Rotary RPM
TOR  .                                            :     12  Rotary Torque
WOB  .kDaN                                        :     13  Weight on Bit
ROP  .m/hr                                        :      3  Rate Of Penetration
BITOR.kf-lbf                                      :    824  Bit Torque
BHT  .meters                                      :     28  Block Height
DIFP .kPa                                         :    123  Differential Pressure
DARW .kDaN                                        :    715  DAS Recommended WOB
DARR .RPM                                         :    716  DAS Recommended RPM
ADTPD.tick/ft                                     :    238  AutoDriller Ticks Per Depth
DBRMN.RPM                                         :    722  DAS Bit RPM Min
DARDP.kPa                                         :    731  DAS Recommended DIFFP
DRROP.m/hr                                        :    739  DAS Recommended ROP
DATE .yymmdd                                      :      0  YearMonthDay
TIME .hhmmss                                      :      0  HoursMinutesSeconds
# NOTE: Data generated with Omit Duplicate Depths enabled
~A DEPT       TVD      ROP      RPM      TOR      WOB      ROP    BITOR      BHT     DIFP     DARW     DARR    ADTPD    DBRMN    DARDP    DRROP   YYMMDD HHMMSS
# ...
5758.0     5746.9   105.96    63.50   10.900     18.2    32.30        7     18.6   3070.6  -999.25  -999.25    -2875  -999.25  -999.25  -999.25   191206 215104
5759.0     5747.8   113.89    62.65   10.352     18.1    34.71        8     18.3   3181.7  -999.25  -999.25    -2875  -999.25  -999.25  -999.25   191206 215138
5760.0     5748.9   121.05    62.71   10.263     18.2    36.90        8     18.0   3167.4  -999.25  -999.25    -2875  -999.25  -999.25  -999.25   191206 215211
5761.0     5749.8   112.56    63.06   11.088     18.2    34.31        8     17.7   3252.6  -999.25  -999.25    -2875  -999.25  -999.25  -999.25   191206 215243
5762.0     5750.9   118.03    63.69   10.502     18.2    35.98        8     17.4   3249.1  -999.25  -999.25    -2875  -999.25  -999.25  -999.25   191206 215319
5763.0     5751.8   113.89    62.30    9.795     18.1    34.71        8     17.1   3175.2  -999.25  -999.25    -2875  -999.25  -999.25  -999.25   191206 215351
5764.0     5752.9   112.33    62.68   10.549     18.4    34.24        8     16.8   3217.9  -999.25  -999.25    -2875  -999.25  -999.25  -999.25   191206 215427
5765.0     5753.8   107.43    64.86   11.130     18.7    32.75        8     16.5   3214.2  -999.25  -999.25    -2875  -999.25  -999.25  -999.25   191206 215504
5766.0     5754.8   108.91    62.87    9.870     18.2    33.19        8     16.2   3193.9  -999.25  -999.25    -2875  -999.25  -999.25  -999.25   191206 215538
5767.0     5755.8    99.15    62.61    9.785     18.4    30.22        7     15.9   2923.6  -999.25  -999.25    -2875  -999.25  -999.25  -999.25   191206 215618
5768.0     5756.8   102.94    63.34   10.479     18.3    31.37        7     15.6   3105.3  -999.25  -999.25    -2875  -999.25  -999.25  -999.25   191206 215656
5769.0     5757.8   103.56    64.95   11.776     18.5    31.57        8     15.3   3140.7  -999.25  -999.25    -2875  -999.25  -999.25  -999.25   191206 215737
5770.0     5758.8   101.11    63.59   10.722     18.5    30.82        7     15.0   3107.3  -999.25  -999.25    -2875  -999.25  -999.25  -999.25   191206 215815
5771.0     5759.8   102.30    64.19   10.408     18.5    31.18        8     14.7   3128.1  -999.25  -999.25    -2875  -999.25  -999.25  -999.25   191206 215850
5772.0     5760.8   113.19    64.04   11.265     18.5    34.50        8     14.4   3316.1  -999.25  -999.25    -2875  -999.25  -999.25  -999.25   191206 215926
5773.0     5761.8   115.02    62.80    9.874     18.4    35.06        8     14.1   3209.8  -999.25  -999.25    -2875  -999.25  -999.25  -999.25   191206 215959
5774.0     5762.8   111.57    63.72   10.717     18.3    34.01        8     13.8   3246.6  -999.25  -999.25    -2875  -999.25  -999.25  -999.25   191206 220033
5775.0     5763.8   109.32    64.67   11.326     18.1    33.32        9     13.4   3599.0  -999.25  -999.25    -2875  -999.25  -999.25  -999.25   191206 220108
5776.0     5764.8   119.23    66.15   13.172     18.4    36.34        9     13.1   3711.6  -999.25  -999.25    -2875  -999.25  -999.25  -999.25   191206 220140
5777.0     5765.8   127.65    62.43    9.706     18.4    38.91        9     12.8   3619.2  -999.25  -999.25    -2875  -999.25  -999.25  -999.25   191206 220217
5778.0     5766.8   101.18    62.52    9.359     18.2    30.84        7     12.5   3010.5  -999.25  -999.25    -2875  -999.25  -999.25  -999.25   191206 220255
5779.0     5767.8   106.66    68.49   13.130     18.7    32.51        8     12.2   3448.9  -999.25  -999.25    -2875  -999.25  -999.25  -999.25   191206 220333
5780.0     5768.8    94.44    66.18   15.411     18.8    28.79       10     11.9   4076.6  -999.25  -999.25    -2875  -999.25  -999.25  -999.25   191206 220406
5781.0     5769.8   188.74    62.33   13.041     18.2    57.53       10     11.6   4207.0  -999.25  -999.25    -2875  -999.25  -999.25  -999.25   191206 220423
5782.0     5770.8   217.12    68.80   13.514     19.6    66.18       10     11.3   4138.4  -999.25  -999.25    -2875  -999.25  -999.25  -999.25   191206 220459
5783.0     5771.8    99.42    66.15   11.734     18.8    30.30        8     11.0   3203.9  -999.25  -999.25    -2875  -999.25  -999.25  -999.25   191206 220541
5784.0     5772.8    80.96    62.20   10.052     18.6    24.68        7     10.7   2771.6  -999.25  -999.25    -2875  -999.25  -999.25  -999.25   191206 220628
5785.0     5773.8    88.16    62.99    9.678     18.7    26.87        7     10.4   2823.4  -999.25  -999.25    -2875  -999.25  -999.25  -999.25   191206 220712
5786.0     5774.8    84.36    62.43   10.151     18.6    25.71        6     10.1   2663.4  -999.25  -999.25    -2875  -999.25  -999.25  -999.25   191206 220758
5787.0     5775.8   107.81    66.03   12.029     18.3    32.86        8      9.8   3182.1  -999.25  -999.25    -2875  -999.25  -999.25  -999.25   191206 220830
5788.0     5776.8   112.84    64.76   11.828     18.4    34.39        8      9.5   3242.5  -999.25  -999.25    -2875  -999.25  -999.25  -999.25   191206 220907
5789.0     5777.8   101.11    66.66   12.338     18.4    30.82        7      9.2   3062.7  -999.25  -999.25    -2875  -999.25  -999.25  -999.25   191206 220946
5790.0     5778.8    86.65    62.61    9.546     18.5    26.41        7      8.9   2802.3  -999.25  -999.25    -2875  -999.25  -999.25  -999.25   191206 221030
5791.0     5779.8   100.34    68.58   13.495     18.9    30.58        8      8.6   3231.3  -999.25  -999.25    -2875  -999.25  -999.25  -999.25   191206 221107
5792.0     5780.7   101.88    66.59   12.268     18.3    31.05        7      8.3   3036.9  -999.25  -999.25    -2875  -999.25  -999.25  -999.25   191206 221142
5793.0     5781.8   101.46    64.89   11.561     18.4    30.93        7      8.0   2963.2  -999.25  -999.25    -2875  -999.25  -999.25  -999.25   191206 221223
5794.0     5782.7    90.79    62.27    9.308     18.4    27.67        7      7.7   2871.4  -999.25  -999.25    -2875  -999.25  -999.25  -999.25   191206 221305
5795.0     5783.8   110.80    66.69   12.418     18.5    33.77        8      7.4   3174.2  -999.25  -999.25    -2875  -999.25  -999.25  -999.25   191206 221340
5796.0     5784.7   105.12    67.60   12.994     18.7    32.04        7      7.0   3049.1  -999.25  -999.25    -2875  -999.25  -999.25  -999.25   191206 221419
5797.0     5785.8    90.58    62.71    9.832     18.4    27.61        7      6.7   2835.1  -999.25  -999.25    -2875  -999.25  -999.25  -999.25   191206 221501
5798.0     5786.7   106.03    67.19   12.952     18.5    32.32        8      6.4   3289.0  -999.25  -999.25    -2875  -999.25  -999.25  -999.25   191206 221538
5799.0     5787.7   106.03    64.16   10.872     18.4    32.32        8      6.1   3267.0  -999.25  -999.25    -2875  -999.25  -999.25  -999.25   191206 221614
5800.0     5788.7   101.96    63.15   11.195     18.5    31.08        7      5.8   2977.3  -999.25  -999.25    -2875  -999.25  -999.25  -999.25   191206 221655
5801.0     5789.7   100.83    62.87    9.673     18.4    30.73        7      5.5   2938.0  -999.25  -999.25    -2875  -999.25  -999.25  -999.25   191206 221732
5802.0     5790.7   106.52    63.63   10.394     18.6    32.47        7      5.2   2939.4  -999.25  -999.25    -2875  -999.25  -999.25  -999.25   191206 221809
5803.0     5791.7   110.03    63.94   11.055     18.4    33.54        8      4.9   3171.2  -999.25  -999.25    -2875  -999.25  -999.25  -999.25   191206 221842
5804.0     5792.7   115.29    62.58    9.748     18.2    35.14        8      4.6   3212.1  -999.25  -999.25    -2875  -999.25  -999.25  -999.25   191206 221915
5805.0     5793.7   103.84    64.26   11.476     18.4    31.65        8      4.3   3471.3  -999.25  -999.25    -2875  -999.25  -999.25  -999.25   191206 221952
5806.0     5794.7   111.58    62.74    9.415     18.4    34.01        7      4.0   3067.7  -999.25  -999.25    -2875  -999.25  -999.25  -999.25   191206 222031
5807.0     5795.7    98.38    62.61    9.935     18.5    29.98        8      3.7   3136.1  -999.25  -999.25    -2875  -999.25  -999.25  -999.25   191206 222109
