#Pason DataHub                     Well Dossier No:    25396325
#LAS - Log ASCII Standard         Report Generated:    2020-01-02 16:49:03CST
~VERSION INFORMATION
VERS.                                          2.0:    CWLS LOG ASCII STANDARD - VERSION 2.0
WRAP.                                           No:    ONE LINE PER DEPTH STEP
~WELL INFORMATION BLOCK
#MNEM.UNIT                                     DATA    DESCRIPTION OF MNEMONIC
#---------                                     ----    -----------------------
STRT.feet                                     58.0:    Start Depth
STOP.feet                                  17137.0:    Stop Depth
STEP.feet                                      1.0:    Step Value
NULL.                                      -999.25:    NULL Value
COMP.                         Surge Operating, LLC:    Company
WELL.                  Middleton Unit B 47-38 #8SH:    Well
FLD .                                             :    Field
LOC .                                             :    Location
CNTY.                                       Howard:    County
STAT.                                           TX:    State
CTRY.                                United States:    Country
SRVC.                             Latshaw Drilling:    Service Company
DATE.                                             :    Date
API .                                             :    API Number
RIG .                                    Latshaw 9:    Rig
NUM .                                     25396325:    Well Dossier No
~CURVE INFORMATION
#MNEM.UNIT                                 API CODE    CURVE DESCRIPTION
#---------                                 --------    -----------------
DEPT .feet                                     001:      5  Hole Depth
TVD  .feet                                     960:     50  True Vertical Depth
ROP  .ft/hr                                       :      3  Rate Of Penetration
RPM  .RPM                                         :     11  Rotary RPM
TOR  .                                            :     12  Rotary Torque
WOB  .kDaN                                        :     13  Weight on Bit
ROP  .m/hr                                        :      3  Rate Of Penetration
BITOR.kf-lbf                                      :    824  Bit Torque
BHT  .meters                                      :     28  Block Height
DIFP .kPa                                         :    123  Differential Pressure
DARW .kDaN                                        :    715  DAS Recommended WOB
DARR .RPM                                         :    716  DAS Recommended RPM
ADTPD.tick/ft                                     :    238  AutoDriller Ticks Per Depth
DBRMN.RPM                                         :    722  DAS Bit RPM Min
DARDP.kPa                                         :    731  DAS Recommended DIFFP
DRROP.m/hr                                        :    739  DAS Recommended ROP
DATE .yymmdd                                      :      0  YearMonthDay
TIME .hhmmss                                      :      0  HoursMinutesSeconds
# NOTE: Data generated with Omit Duplicate Depths enabled
~A DEPT       TVD      ROP      RPM      TOR      WOB      ROP    BITOR      BHT     DIFP     DARW     DARR    ADTPD    DBRMN    DARDP    DRROP   YYMMDD HHMMSS
# ...
6858.0     6842.6   120.28    65.33   13.594     18.3    36.66        8     -0.2   3453.0  -999.25  -999.25    -2875  -999.25  -999.25  -999.25   191207 083541
6859.0     6843.6   120.42    64.92   13.092     17.0    36.70        8     -0.5   3391.1  -999.25  -999.25    -2875  -999.25  -999.25  -999.25   191207 083611
6860.0     6844.6    52.69    62.65    5.485      7.4    16.06        2     28.2    660.6  -999.25  -999.25    -2875  -999.25  -999.25  -999.25   191207 084359
6861.0     6845.6    35.43    64.70   10.511     14.8    10.80        6     27.7   2521.5  -999.25  -999.25    -2875  -999.25  -999.25  -999.25   191207 084440
6862.0     6846.6   149.42    63.85   10.249     18.7    45.54        7     27.6   2777.5  -999.25  -999.25    -2875  -999.25  -999.25  -999.25   191207 084508
6863.0     6847.6   130.67    64.98   13.055     18.4    39.83        9     27.3   3803.5  -999.25  -999.25    -2875  -999.25  -999.25  -999.25   191207 084548
6864.0     6848.6   126.25    65.17   11.200     18.2    38.48        8     27.0   3313.4  -999.25  -999.25    -2875  -999.25  -999.25  -999.25   191207 084618
6865.0     6849.6   120.42    65.33   13.088     18.4    36.71        9     26.7   3826.5  -999.25  -999.25    -2875  -999.25  -999.25  -999.25   191207 084649
6866.0     6850.6   140.57    67.13   13.907     18.4    42.85        8     26.4   3284.6  -999.25  -999.25    -2875  -999.25  -999.25  -999.25   191207 084717
6867.0     6851.6   126.75    65.80   11.467     18.6    38.63        8     26.1   3310.8  -999.25  -999.25    -2875  -999.25  -999.25  -999.25   191207 084754
6868.0     6852.6    98.51    67.13   13.097     18.7    30.03        9     25.8   3555.8  -999.25  -999.25    -2875  -999.25  -999.25  -999.25   191207 084830
6869.0     6853.6   123.79    67.76   13.083     17.9    37.73        8     25.4   3340.8  -999.25  -999.25    -2875  -999.25  -999.25  -999.25   191207 084900
6870.0     6854.6   116.00    65.96   12.235     18.4    35.36        8     25.1   3263.7  -999.25  -999.25    -2875  -999.25  -999.25  -999.25   191207 084937
6871.0     6855.6   114.18    66.50   13.425     18.1    34.80        8     24.8   3331.0  -999.25  -999.25    -2875  -999.25  -999.25  -999.25   191207 085011
6872.0     6856.6   120.16    65.96   12.296     18.3    36.63        7     24.5   3004.2  -999.25  -999.25    -2875  -999.25  -999.25  -999.25   191207 085044
6873.0     6857.5   109.89    65.39   13.223     18.2    33.49        9     24.2   3543.8  -999.25  -999.25    -2875  -999.25  -999.25  -999.25   191207 085119
6874.0     6858.6   118.87    66.28   11.073     18.4    36.23        8     23.9   3346.9  -999.25  -999.25    -2875  -999.25  -999.25  -999.25   191207 085159
6875.0     6859.5   100.20    67.76   13.331     18.3    30.54        7     23.6   3060.0  -999.25  -999.25    -2875  -999.25  -999.25  -999.25   191207 085238
6876.0     6860.5   104.55    67.35   13.481     18.6    31.87        8     23.3   3200.1  -999.25  -999.25    -2875  -999.25  -999.25  -999.25   191207 085317
6877.0     6861.5   113.12    66.18   12.952     18.0    34.48        8     23.0   3253.3  -999.25  -999.25    -2875  -999.25  -999.25  -999.25   191207 085350
6878.0     6862.5   124.35    64.64   13.041     18.0    37.90        8     22.7   3168.2  -999.25  -999.25    -2875  -999.25  -999.25  -999.25   191207 085421
6879.0     6863.5   126.19    66.31   11.982     18.3    38.46        8     22.4   3275.4  -999.25  -999.25    -2875  -999.25  -999.25  -999.25   191207 085455
6880.0     6864.5   125.41    67.67   13.491     18.0    38.22        8     22.1   3336.0  -999.25  -999.25    -2875  -999.25  -999.25  -999.25   191207 085526
6881.0     6865.5   125.69    66.75   13.392     18.1    38.31        9     21.8   3578.0  -999.25  -999.25    -2875  -999.25  -999.25  -999.25   191207 085556
6882.0     6866.5   124.55    64.41   11.710     18.0    37.96        8     21.5   3127.4  -999.25  -999.25    -2875  -999.25  -999.25  -999.25   191207 085633
6883.0     6867.5   114.60    63.44   11.083     17.9    34.93        7     21.2   3019.9  -999.25  -999.25    -2875  -999.25  -999.25  -999.25   191207 085705
6884.0     6868.5   107.68    65.36   12.872     18.3    32.82        9     20.9   3779.2  -999.25  -999.25    -2875  -999.25  -999.25  -999.25   191207 085746
6885.0     6869.5   156.09    65.74   13.706     18.6    47.58        9     20.6   3572.6  -999.25  -999.25    -2875  -999.25  -999.25  -999.25   191207 085809
6886.0     6870.5   166.98    65.36   14.137     17.9    50.89        9     20.3   3805.8  -999.25  -999.25    -2875  -999.25  -999.25  -999.25   191207 085833
6887.0     6871.5   148.74    66.62   14.746     19.6    45.34        9     20.0   3592.7  -999.25  -999.25    -2875  -999.25  -999.25  -999.25   191207 085909
6888.0     6872.5   134.04    67.60   14.343     16.7    40.86        8     19.7   3437.7  -999.25  -999.25    -2875  -999.25  -999.25  -999.25   191207 085935
6889.0     6873.5   157.15    67.32   13.453     18.7    47.90        8     19.4   3507.3  -999.25  -999.25    -2875  -999.25  -999.25  -999.25   191207 090001
6890.0     6874.5   138.05    65.61   11.444     18.6    42.08        7     19.0   3062.7  -999.25  -999.25    -2875  -999.25  -999.25  -999.25   191207 090038
6891.0     6875.5    91.42    65.93   13.917     18.4    27.86        9     18.7   3837.5  -999.25  -999.25    -2875  -999.25  -999.25  -999.25   191207 090117
6892.0     6876.5   139.66    65.43   13.430     17.9    42.57        9     18.4   3750.7  -999.25  -999.25    -2875  -999.25  -999.25  -999.25   191207 090141
6893.0     6877.5   153.98    65.36   14.011     18.8    46.93       10     18.1   4016.8  -999.25  -999.25    -2875  -999.25  -999.25  -999.25   191207 090206
6894.0     6878.5   151.80    68.96   14.961     18.8    46.27        8     17.8   3479.0  -999.25  -999.25    -2875  -999.25  -999.25  -999.25   191207 090239
6895.0     6879.5   128.78    65.33   13.626     17.2    39.25        9     17.5   3648.3  -999.25  -999.25    -2875  -999.25  -999.25  -999.25   191207 090307
6896.0     6880.5   133.90    65.08   13.327     17.7    40.81        9     17.2   3684.8  -999.25  -999.25    -2875  -999.25  -999.25  -999.25   191207 090336
6897.0     6881.5   125.06    64.70   13.233     18.4    38.12        8     16.9   3442.8  -999.25  -999.25    -2875  -999.25  -999.25  -999.25   191207 090411
6898.0     6882.5   122.74    65.46   12.793     18.0    37.41        8     16.6   3347.2  -999.25  -999.25    -2875  -999.25  -999.25  -999.25   191207 090442
6899.0     6883.5   138.26    64.79   14.048     18.2    42.14        9     16.3   3718.9  -999.25  -999.25    -2875  -999.25  -999.25  -999.25   191207 090508
6900.0     6884.5   144.37    64.04   13.289     18.4    44.00        8     16.0   3496.8  -999.25  -999.25    -2875  -999.25  -999.25  -999.25   191207 090550
6901.0     6885.5   130.18    65.17   13.467     16.6    39.68        9     15.7   3737.3  -999.25  -999.25    -2875  -999.25  -999.25  -999.25   191207 090617
6902.0     6886.5   130.39    70.10   16.100     18.4    39.74        9     15.4   3632.3  -999.25  -999.25    -2875  -999.25  -999.25  -999.25   191207 090649
6903.0     6887.4   125.82    65.93   13.420     17.1    38.35        9     15.1   3620.3  -999.25  -999.25    -2875  -999.25  -999.25  -999.25   191207 090718
6904.0     6888.5   127.72    64.57   12.390     16.8    38.93        8     14.8   3286.4  -999.25  -999.25    -2875  -999.25  -999.25  -999.25   191207 090747
6905.0     6889.4   128.91    64.92   12.048     17.0    39.29        8     14.5   3332.9  -999.25  -999.25    -2875  -999.25  -999.25  -999.25   191207 090815
6906.0     6890.5   125.13    66.09   13.373     17.1    38.14        8     14.2   3402.3  -999.25  -999.25    -2875  -999.25  -999.25  -999.25   191207 090845
6907.0     6891.4   127.79    65.61   13.078     16.8    38.95        9     13.9   3549.7  -999.25  -999.25    -2875  -999.25  -999.25  -999.25   191207 090914
