#Pason DataHub                     Well Dossier No:    25396325
#LAS - Log ASCII Standard         Report Generated:    2020-01-02 16:49:03CST
~VERSION INFORMATION
VERS.                                          2.0:    CWLS LOG ASCII STANDARD - VERSION 2.0
WRAP.                                           No:    ONE LINE PER DEPTH STEP
~WELL INFORMATION BLOCK
#MNEM.UNIT                                     DATA    DESCRIPTION OF MNEMONIC
#---------                                     ----    -----------------------
STRT.feet                                     58.0:    Start Depth
STOP.feet                                  17137.0:    Stop Depth
STEP.feet                                      1.0:    Step Value
NULL.                                      -999.25:    NULL Value
COMP.                         Surge Operating, LLC:    Company
WELL.                  Middleton Unit B 47-38 #8SH:    Well
FLD .                                             :    Field
LOC .                                             :    Location
CNTY.                                       Howard:    County
STAT.                                           TX:    State
CTRY.                                United States:    Country
SRVC.                             Latshaw Drilling:    Service Company
DATE.                                             :    Date
API .                                             :    API Number
RIG .                                    Latshaw 9:    Rig
NUM .                                     25396325:    Well Dossier No
~CURVE INFORMATION
#MNEM.UNIT                                 API CODE    CURVE DESCRIPTION
#---------                                 --------    -----------------
DEPT .feet                                     001:      5  Hole Depth
TVD  .feet                                     960:     50  True Vertical Depth
ROP  .ft/hr                                       :      3  Rate Of Penetration
RPM  .RPM                                         :     11  Rotary RPM
TOR  .                                            :     12  Rotary Torque
WOB  .kDaN                                        :     13  Weight on Bit
ROP  .m/hr                                        :      3  Rate Of Penetration
BITOR.kf-lbf                                      :    824  Bit Torque
BHT  .meters                                      :     28  Block Height
DIFP .kPa                                         :    123  Differential Pressure
DARW .kDaN                                        :    715  DAS Recommended WOB
DARR .RPM                                         :    716  DAS Recommended RPM
ADTPD.tick/ft                                     :    238  AutoDriller Ticks Per Depth
DBRMN.RPM                                         :    722  DAS Bit RPM Min
DARDP.kPa                                         :    731  DAS Recommended DIFFP
DRROP.m/hr                                        :    739  DAS Recommended ROP
DATE .yymmdd                                      :      0  YearMonthDay
TIME .hhmmss                                      :      0  HoursMinutesSeconds
# NOTE: Data generated with Omit Duplicate Depths enabled
~A DEPT       TVD      ROP      RPM      TOR      WOB      ROP    BITOR      BHT     DIFP     DARW     DARR    ADTPD    DBRMN    DARDP    DRROP   YYMMDD HHMMSS
# ...
2308.0     2304.6   212.04    65.01    7.687     12.8    64.63        7      7.7   2945.6  -999.25  -999.25    -2875  -999.25  -999.25  -999.25   191205 085303
2309.0     2305.6   161.70    63.28    8.155     11.4    49.29        7      7.4   2977.9  -999.25  -999.25    -2875  -999.25  -999.25  -999.25   191205 085324
2310.0     2306.6   173.00    65.17    7.912     11.3    52.73        7      7.1   3012.0  -999.25  -999.25    -2875  -999.25  -999.25  -999.25   191205 085349
2311.0     2307.6   160.54    65.74    7.790     11.4    48.93        7      6.8   2986.8  -999.25  -999.25    -2875  -999.25  -999.25  -999.25   191205 085410
2312.0     2308.6   210.27    63.88    6.150      9.7    64.09        6      6.5   2538.7  -999.25  -999.25    -2875  -999.25  -999.25  -999.25   191205 085426
2313.0     2309.6   224.87    62.80    6.029      7.3    68.54        5      6.2   1919.0  -999.25  -999.25    -2875  -999.25  -999.25  -999.25   191205 085442
2314.0     2310.6   216.70    64.00    6.638      8.2    66.05        5      5.9   2273.5  -999.25  -999.25    -2875  -999.25  -999.25  -999.25   191205 085459
2315.0     2311.6   215.15    63.31    6.797      8.5    65.58        6      5.6   2324.3  -999.25  -999.25    -2875  -999.25  -999.25  -999.25   191205 085516
2316.0     2312.6   215.70    64.64    7.050     10.5    65.74        6      5.3   2579.6  -999.25  -999.25    -2875  -999.25  -999.25  -999.25   191205 085533
2317.0     2313.6   213.38    64.60    7.528     11.1    65.04        7      5.0   2836.2  -999.25  -999.25    -2875  -999.25  -999.25  -999.25   191205 085552
2318.0     2314.6   199.62    64.23    7.790     11.3    60.85        7      4.7   2909.2  -999.25  -999.25    -2875  -999.25  -999.25  -999.25   191205 085609
2319.0     2315.5   206.71    64.23    8.268     10.3    63.01        7      4.4   2983.7  -999.25  -999.25    -2875  -999.25  -999.25  -999.25   191205 085627
2320.0     2316.5   214.62    65.20    7.490     10.9    65.42        7      4.1   2888.1  -999.25  -999.25    -2875  -999.25  -999.25  -999.25   191205 085643
2321.0     2317.5   215.26    64.26    7.771     10.9    65.61        7      3.8   2951.1  -999.25  -999.25    -2875  -999.25  -999.25  -999.25   191205 085701
2322.0     2318.5   117.65    62.61    5.982      6.8    35.86        5     32.2   2076.9  -999.25  -999.25    -2875  -999.25  -999.25  -999.25   191205 090317
2323.0     2319.5   208.55    62.05    7.804     11.2    63.57        8     31.8   3165.0  -999.25  -999.25    -2875  -999.25  -999.25  -999.25   191205 090338
2324.0     2320.5   178.69    62.80    8.563     11.6    54.47        8     31.5   3536.5  -999.25  -999.25    -2875  -999.25  -999.25  -999.25   191205 090401
2325.0     2321.5   177.28    63.09    7.963     11.3    54.03        8     31.2   3413.8  -999.25  -999.25    -2875  -999.25  -999.25  -999.25   191205 090421
2326.0     2322.5   175.18    65.93    8.788     11.6    53.40        9     30.9   3564.6  -999.25  -999.25    -2875  -999.25  -999.25  -999.25   191205 090454
2327.0     2323.5   116.07    63.91    7.968     10.7    35.38        7     30.6   3015.9  -999.25  -999.25    -2875  -999.25  -999.25  -999.25   191205 090522
2328.0     2324.5   216.42    62.33    8.352     11.6    65.96        8     30.3   3458.7  -999.25  -999.25    -2875  -999.25  -999.25  -999.25   191205 090537
2329.0     2325.5   240.07    62.52    8.427     11.0    73.17        8     30.0   3490.2  -999.25  -999.25    -2875  -999.25  -999.25  -999.25   191205 090553
2330.0     2326.5   229.98    64.76    8.268     11.6    70.10        8     29.7   3495.2  -999.25  -999.25    -2875  -999.25  -999.25  -999.25   191205 090617
2331.0     2327.5   175.34    64.16    7.495     10.9    53.44        8     29.4   3270.4  -999.25  -999.25    -2875  -999.25  -999.25  -999.25   191205 090637
2332.0     2328.5   200.20    63.25    6.820     11.0    61.02        6     29.1   2691.7  -999.25  -999.25    -2875  -999.25  -999.25  -999.25   191205 090652
2333.0     2329.5   261.02    61.45    6.399      9.7    79.56        5     28.8   1933.6  -999.25  -999.25    -2875  -999.25  -999.25  -999.25   191205 090705
2334.0     2330.5   299.05    62.08    6.506      9.7    91.15        6     28.5   2612.0  -999.25  -999.25    -2875  -999.25  -999.25  -999.25   191205 090716
2335.0     2331.5   309.60    62.11    6.876      8.7    94.37        6     28.2   2632.2  -999.25  -999.25    -2875  -999.25  -999.25  -999.25   191205 090728
2336.0     2332.5    79.47     8.81    4.291      4.1    24.22        4     27.9   1475.7  -999.25  -999.25    -2875  -999.25  -999.25  -999.25   191205 091109
2337.0     2333.5    80.46     7.11    4.253      4.2    24.53        4     27.6   1485.0  -999.25  -999.25    -2875  -999.25  -999.25  -999.25   191205 091155
2338.0     2334.5    80.40     9.88    5.293      6.1    24.51        4     27.3   1659.2  -999.25  -999.25    -2875  -999.25  -999.25  -999.25   191205 091244
2339.0     2335.5    95.35     8.90    5.687      4.9    29.06        4     27.0   1577.0  -999.25  -999.25    -2875  -999.25  -999.25  -999.25   191205 091327
2340.0     2336.5    95.21     5.43    3.326      4.1    29.02        4     26.7   1473.5  -999.25  -999.25    -2875  -999.25  -999.25  -999.25   191205 091410
2341.0     2337.5    79.75     5.56    3.593      5.2    24.31        4     26.3   1528.5  -999.25  -999.25    -2875  -999.25  -999.25  -999.25   191205 091456
2342.0     2338.5    80.86     5.81    4.445      5.5    24.65        4     26.0   1671.1  -999.25  -999.25    -2875  -999.25  -999.25  -999.25   191205 091547
2343.0     2339.5    90.36     7.14    5.078      5.8    27.54        4     25.7   1684.8  -999.25  -999.25    -2875  -999.25  -999.25  -999.25   191205 091628
2344.0     2340.5    91.07     6.38    5.195      5.7    27.76        4     25.4   1595.7  -999.25  -999.25    -2875  -999.25  -999.25  -999.25   191205 091716
2345.0     2341.5    81.51     8.81    6.244      5.0    24.84        4     25.1   1528.1  -999.25  -999.25    -2875  -999.25  -999.25  -999.25   191205 091803
2346.0     2342.5    80.53     5.94    4.628      6.5    24.55        4     24.8   1653.3  -999.25  -999.25    -2875  -999.25  -999.25  -999.25   191205 091852
2347.0     2343.4    81.28     6.16    4.263      6.4    24.77        4     24.5   1621.1  -999.25  -999.25    -2875  -999.25  -999.25  -999.25   191205 091937
2348.0     2344.4    83.34     6.22    5.242      6.0    25.40        4     24.2   1662.6  -999.25  -999.25    -2875  -999.25  -999.25  -999.25   191205 092024
2349.0     2345.4    80.29     7.07    5.452      7.3    24.47        4     23.9   1816.4  -999.25  -999.25    -2875  -999.25  -999.25  -999.25   191205 092116
2350.0     2346.4    78.89     6.13    5.382      7.3    24.05        4     23.6   1773.9  -999.25  -999.25    -2875  -999.25  -999.25  -999.25   191205 092214
2351.0     2347.4    72.56     7.64    5.607      7.7    22.12        4     23.3   1782.1  -999.25  -999.25    -2875  -999.25  -999.25  -999.25   191205 092314
2352.0     2348.4    84.89     6.25    5.246      6.7    25.87        4     23.0   1627.5  -999.25  -999.25    -2875  -999.25  -999.25  -999.25   191205 092358
2353.0     2349.4    87.44     6.54    5.279      6.2    26.65        4     22.7   1554.1  -999.25  -999.25    -2875  -999.25  -999.25  -999.25   191205 092442
2354.0     2350.4    83.08     6.16    5.190      7.6    25.32        4     22.4   1776.3  -999.25  -999.25    -2875  -999.25  -999.25  -999.25   191205 092546
2355.0     2351.4    16.92    59.30    2.403      2.4     5.16        0     21.8    157.4  -999.25  -999.25    -2875  -999.25  -999.25  -999.25   191205 093016
2356.0     2352.4    72.98    61.48    5.354      9.9    22.25        4     21.8   1572.5  -999.25  -999.25    -2875  -999.25  -999.25  -999.25   191205 093111
2357.0     2353.4    67.41    62.65    6.764     12.5    20.55        5     21.5   2069.6  -999.25  -999.25    -2875  -999.25  -999.25  -999.25   191205 093218
