#Pason DataHub                     Well Dossier No:    25396325
#LAS - Log ASCII Standard         Report Generated:    2020-01-02 16:49:03CST
~VERSION INFORMATION
VERS.                                          2.0:    CWLS LOG ASCII STANDARD - VERSION 2.0
WRAP.                                           No:    ONE LINE PER DEPTH STEP
~WELL INFORMATION BLOCK
#MNEM.UNIT                                     DATA    DESCRIPTION OF MNEMONIC
#---------                                     ----    -----------------------
STRT.feet                                     58.0:    Start Depth
STOP.feet                                  17137.0:    Stop Depth
STEP.feet                                      1.0:    Step Value
NULL.                                      -999.25:    NULL Value
COMP.                         Surge Operating, LLC:    Company
WELL.                  Middleton Unit B 47-38 #8SH:    Well
FLD .                                             :    Field
LOC .                                             :    Location
CNTY.                                       Howard:    County
STAT.                                           TX:    State
CTRY.                                United States:    Country
SRVC.                             Latshaw Drilling:    Service Company
DATE.                                             :    Date
API .                                             :    API Number
RIG .                                    Latshaw 9:    Rig
NUM .                                     25396325:    Well Dossier No
~CURVE INFORMATION
#MNEM.UNIT                                 API CODE    CURVE DESCRIPTION
#---------                                 --------    -----------------
DEPT .feet                                     001:      5  Hole Depth
TVD  .feet                                     960:     50  True Vertical Depth
ROP  .ft/hr                                       :      3  Rate Of Penetration
RPM  .RPM                                         :     11  Rotary RPM
TOR  .                                            :     12  Rotary Torque
WOB  .kDaN                                        :     13  Weight on Bit
ROP  .m/hr                                        :      3  Rate Of Penetration
BITOR.kf-lbf                                      :    824  Bit Torque
BHT  .meters                                      :     28  Block Height
DIFP .kPa                                         :    123  Differential Pressure
DARW .kDaN                                        :    715  DAS Recommended WOB
DARR .RPM                                         :    716  DAS Recommended RPM
ADTPD.tick/ft                                     :    238  AutoDriller Ticks Per Depth
DBRMN.RPM                                         :    722  DAS Bit RPM Min
DARDP.kPa                                         :    731  DAS Recommended DIFFP
DRROP.m/hr                                        :    739  DAS Recommended ROP
DATE .yymmdd                                      :      0  YearMonthDay
TIME .hhmmss                                      :      0  HoursMinutesSeconds
# NOTE: Data generated with Omit Duplicate Depths enabled
~A DEPT       TVD      ROP      RPM      TOR      WOB      ROP    BITOR      BHT     DIFP     DARW     DARR    ADTPD    DBRMN    DARDP    DRROP   YYMMDD HHMMSS
# ...
8008.0     7561.7   171.25    21.54   11.561     16.2    52.20        6     11.3   4251.9  -999.25  -999.25    -2875  -999.25  -999.25  -999.25   191223 092331
8009.0     7561.7   169.43    21.79   11.790     16.4    51.64        6     11.0   4224.8  -999.25  -999.25    -2875  -999.25  -999.25  -999.25   191223 092353
8010.0     7561.7   173.77    21.76   11.710     16.4    52.96        6     10.7   4245.4  -999.25  -999.25    -2875  -999.25  -999.25  -999.25   191223 092413
8011.0     7561.7   175.83    21.50   11.874     16.2    53.59        6     10.4   4326.8  -999.25  -999.25    -2875  -999.25  -999.25  -999.25   191223 092434
8012.0     7561.7   177.16    21.91   11.860     16.3    54.00        6     10.1   4378.7  -999.25  -999.25    -2875  -999.25  -999.25  -999.25   191223 092456
8013.0     7561.7   171.48    21.88   11.575     16.3    52.27        6      9.8   4359.3  -999.25  -999.25    -2875  -999.25  -999.25  -999.25   191223 092516
8014.0     7561.8   174.70    22.39   11.776     16.3    53.25        6      9.5   4323.9  -999.25  -999.25    -2875  -999.25  -999.25  -999.25   191223 092537
8015.0     7561.8   173.72    21.79   11.397     16.4    52.95        6      9.2   4273.9  -999.25  -999.25    -2875  -999.25  -999.25  -999.25   191223 092559
8016.0     7561.8   175.68    21.85   11.528     16.2    53.55        6      8.9   4295.2  -999.25  -999.25    -2875  -999.25  -999.25  -999.25   191223 092619
8017.0     7561.8   171.74    22.10   11.823     16.2    52.35        6      8.6   4259.1  -999.25  -999.25    -2875  -999.25  -999.25  -999.25   191223 092642
8018.0     7561.8   164.30    21.91   11.921     16.2    50.08        6      8.3   4199.3  -999.25  -999.25    -2875  -999.25  -999.25  -999.25   191223 092704
8019.0     7561.8   158.90    21.72   12.090     16.2    48.43        6      8.0   4151.4  -999.25  -999.25    -2875  -999.25  -999.25  -999.25   191223 092727
8020.0     7561.9   166.83    22.04   11.762     16.1    50.85        6      7.7   4273.2  -999.25  -999.25    -2875  -999.25  -999.25  -999.25   191223 092749
8021.0     7561.9   168.38    21.91   11.504     16.2    51.32        6      7.4   4286.7  -999.25  -999.25    -2875  -999.25  -999.25  -999.25   191223 092810
8022.0     7561.9   169.85    21.82   11.476     16.3    51.77        6      7.0   4306.8  -999.25  -999.25    -2875  -999.25  -999.25  -999.25   191223 092832
8023.0     7561.9   168.10    21.98   11.125     16.2    51.24        6      6.7   4197.5  -999.25  -999.25    -2875  -999.25  -999.25  -999.25   191223 092854
8024.0     7561.9   166.90    22.23   11.537     16.4    50.87        6      6.4   4313.1  -999.25  -999.25    -2875  -999.25  -999.25  -999.25   191223 092919
8025.0     7561.9   163.06    22.48   11.097     16.4    49.70        6      6.1   4084.6  -999.25  -999.25    -2875  -999.25  -999.25  -999.25   191223 092942
8026.0     7561.9   154.00    21.76   10.956     16.0    46.94        6      5.8   3947.6  -999.25  -999.25    -2875  -999.25  -999.25  -999.25   191223 093002
8027.0     7562.0   209.04    22.17   11.926     17.1    63.72        6      5.5   4399.6  -999.25  -999.25    -2875  -999.25  -999.25  -999.25   191223 093024
8028.0     7562.0   176.01    22.04   10.956     16.2    53.65        6      5.2   4259.6  -999.25  -999.25    -2875  -999.25  -999.25  -999.25   191223 093047
8029.0     7562.0   167.82    22.39   11.181     16.2    51.15        6      4.9   4082.3  -999.25  -999.25    -2875  -999.25  -999.25  -999.25   191223 093109
8030.0     7562.0   168.17    21.98   11.022     16.2    51.26        6      4.6   4145.7  -999.25  -999.25    -2875  -999.25  -999.25  -999.25   191223 093130
8031.0     7562.0   169.99    22.36   11.219     16.1    51.81        6      4.3   4230.9  -999.25  -999.25    -2875  -999.25  -999.25  -999.25   191223 093152
8032.0     7562.0   170.64    22.07   11.191     16.1    52.01        6      4.0   4304.1  -999.25  -999.25    -2875  -999.25  -999.25  -999.25   191223 093213
8033.0     7562.1   172.24    21.98   11.120     16.1    52.50        6      3.7   4260.2  -999.25  -999.25    -2875  -999.25  -999.25  -999.25   191223 093234
8034.0     7562.1   192.25    22.01   11.551     16.0    58.60        6      3.4   4345.1  -999.25  -999.25    -2875  -999.25  -999.25  -999.25   191223 093252
8035.0     7562.1   201.80    21.98   11.467     16.1    61.51        6      3.1   4484.4  -999.25  -999.25    -2875  -999.25  -999.25  -999.25   191223 093309
8036.0     7562.1   235.91    21.98   12.305     16.6    71.91        7      2.8   4687.5  -999.25  -999.25    -2875  -999.25  -999.25  -999.25   191223 093324
8037.0     7562.1   236.19    22.36   12.376     16.7    71.99        7      2.5   4873.5  -999.25  -999.25    -2875  -999.25  -999.25  -999.25   191223 093340
8038.0     7562.1   227.13    21.03   12.142     16.6    69.23        7      2.2   4856.5  -999.25  -999.25    -2875  -999.25  -999.25  -999.25   191223 093357
8039.0     7562.1   225.23    21.00   12.160     16.4    68.65        7      1.9   4722.2  -999.25  -999.25    -2875  -999.25  -999.25  -999.25   191223 093413
8040.0     7562.2   223.66    21.00   12.127     16.6    68.17        7      1.6   4768.7  -999.25  -999.25    -2875  -999.25  -999.25  -999.25   191223 093429
8041.0     7562.2   228.49    21.03   12.249     16.7    69.64        7      1.2   4824.1  -999.25  -999.25    -2875  -999.25  -999.25  -999.25   191223 093445
8042.0     7562.2   224.00    20.97   11.963     16.4    68.27        7      0.9   4823.4  -999.25  -999.25    -2875  -999.25  -999.25  -999.25   191223 093501
8043.0     7562.2   227.87    21.03   12.184     16.6    69.46        7      0.6   4754.6  -999.25  -999.25    -2875  -999.25  -999.25  -999.25   191223 093518
8044.0     7562.2   224.34    21.19   12.137     16.5    68.38        7      0.3   4709.3  -999.25  -999.25    -2875  -999.25  -999.25  -999.25   191223 093534
8045.0     7562.2    96.34    71.96    9.256      8.0    29.36        2     28.9   1513.1  -999.25  -999.25    -2875  -999.25  -999.25  -999.25   191223 094128
8046.0     7562.3   244.84    73.07   11.973     11.5    74.63        4     28.6   2998.2  -999.25  -999.25    -2875  -999.25  -999.25  -999.25   191223 094142
8047.0     7562.3   246.25    73.45   13.514     12.5    75.06        5     28.3   3673.4  -999.25  -999.25    -2875  -999.25  -999.25  -999.25   191223 094157
8048.0     7562.3   246.53    73.51   13.884     13.1    75.14        6     28.0   4509.3  -999.25  -999.25    -2875  -999.25  -999.25  -999.25   191223 094212
8049.0     7562.3   245.24    72.69   13.579     13.2    74.75        7     27.7   4724.3  -999.25  -999.25    -2875  -999.25  -999.25  -999.25   191223 094227
8050.0     7562.3   244.77    73.22   13.551     12.9    74.61        7     27.4   4619.8  -999.25  -999.25    -2875  -999.25  -999.25  -999.25   191223 094241
8051.0     7562.3   247.58    73.48   13.303     12.8    75.46        7     27.1   4686.8  -999.25  -999.25    -2875  -999.25  -999.25  -999.25   191223 094256
8052.0     7562.4   246.10    73.76   13.336     12.1    75.01        7     26.8   4641.6  -999.25  -999.25    -2875  -999.25  -999.25  -999.25   191223 094311
8053.0     7562.4   247.92    73.29   13.195     12.2    75.57        7     26.4   4663.1  -999.25  -999.25    -2875  -999.25  -999.25  -999.25   191223 094325
8054.0     7562.4   246.72    73.92   13.163     11.9    75.20        6     26.1   4502.5  -999.25  -999.25    -2875  -999.25  -999.25  -999.25   191223 094340
8055.0     7562.4   244.42    74.55   13.800     11.7    74.50        6     25.8   4400.0  -999.25  -999.25    -2875  -999.25  -999.25  -999.25   191223 094355
8056.0     7562.4   247.16    73.13   12.858     12.9    75.33        6     25.5   4467.2  -999.25  -999.25    -2875  -999.25  -999.25  -999.25   191223 094409
8057.0     7562.4   246.74    73.22   12.741     13.4    75.21        6     25.2   4201.6  -999.25  -999.25    -2875  -999.25  -999.25  -999.25   191223 094424
