#Pason DataHub                     Well Dossier No:    25396325
#LAS - Log ASCII Standard         Report Generated:    2020-01-02 16:49:03CST
~VERSION INFORMATION
VERS.                                          2.0:    CWLS LOG ASCII STANDARD - VERSION 2.0
WRAP.                                           No:    ONE LINE PER DEPTH STEP
~WELL INFORMATION BLOCK
#MNEM.UNIT                                     DATA    DESCRIPTION OF MNEMONIC
#---------                                     ----    -----------------------
STRT.feet                                     58.0:    Start Depth
STOP.feet                                  17137.0:    Stop Depth
STEP.feet                                      1.0:    Step Value
NULL.                                      -999.25:    NULL Value
COMP.                         Surge Operating, LLC:    Company
WELL.                  Middleton Unit B 47-38 #8SH:    Well
FLD .                                             :    Field
LOC .                                             :    Location
CNTY.                                       Howard:    County
STAT.                                           TX:    State
CTRY.                                United States:    Country
SRVC.                             Latshaw Drilling:    Service Company
DATE.                                             :    Date
API .                                             :    API Number
RIG .                                    Latshaw 9:    Rig
NUM .                                     25396325:    Well Dossier No
~CURVE INFORMATION
#MNEM.UNIT                                 API CODE    CURVE DESCRIPTION
#---------                                 --------    -----------------
DEPT .feet                                     001:      5  Hole Depth
TVD  .feet                                     960:     50  True Vertical Depth
ROP  .ft/hr                                       :      3  Rate Of Penetration
RPM  .RPM                                         :     11  Rotary RPM
TOR  .                                            :     12  Rotary Torque
WOB  .kDaN                                        :     13  Weight on Bit
ROP  .m/hr                                        :      3  Rate Of Penetration
BITOR.kf-lbf                                      :    824  Bit Torque
BHT  .meters                                      :     28  Block Height
DIFP .kPa                                         :    123  Differential Pressure
DARW .kDaN                                        :    715  DAS Recommended WOB
DARR .RPM                                         :    716  DAS Recommended RPM
ADTPD.tick/ft                                     :    238  AutoDriller Ticks Per Depth
DBRMN.RPM                                         :    722  DAS Bit RPM Min
DARDP.kPa                                         :    731  DAS Recommended DIFFP
DRROP.m/hr                                        :    739  DAS Recommended ROP
DATE .yymmdd                                      :      0  YearMonthDay
TIME .hhmmss                                      :      0  HoursMinutesSeconds
# NOTE: Data generated with Omit Duplicate Depths enabled
~A DEPT       TVD      ROP      RPM      TOR      WOB      ROP    BITOR      BHT     DIFP     DARW     DARR    ADTPD    DBRMN    DARDP    DRROP   YYMMDD HHMMSS
# ...
11408.0    7582.6   314.01    75.72   19.299     17.1    95.71        6     11.3   4510.3  -999.25  -999.25    -2875  -999.25  -999.25  -999.25   191224 115953
11409.0    7582.6   305.43    75.25   19.374     17.2    93.10        6     11.0   4482.5  -999.25  -999.25    -2875  -999.25  -999.25  -999.25   191224 120004
11410.0    7582.6   315.20    75.37   19.350     17.2    96.07        6     10.7   4409.8  -999.25  -999.25    -2875  -999.25  -999.25  -999.25   191224 120016
11411.0    7582.5   311.20    75.34   19.336     17.0    94.85        6     10.4   4460.3  -999.25  -999.25    -2875  -999.25  -999.25  -999.25   191224 120028
11412.0    7582.5   301.50    76.44   19.641     17.0    91.90        6     10.1   4483.2  -999.25  -999.25    -2875  -999.25  -999.25  -999.25   191224 120040
11413.0    7582.5   301.43    76.67   19.383     17.4    91.88        6      9.8   4423.9  -999.25  -999.25    -2875  -999.25  -999.25  -999.25   191224 120053
11414.0    7582.5   288.03    75.37   19.369     17.1    87.79        6      9.5   4381.2  -999.25  -999.25    -2875  -999.25  -999.25  -999.25   191224 120107
11415.0    7582.5   278.06    76.98   19.121     17.1    84.75        6      9.2   4417.7  -999.25  -999.25    -2875  -999.25  -999.25  -999.25   191224 120119
11416.0    7582.5   280.08    76.10   18.971     17.0    85.37        6      8.9   4416.4  -999.25  -999.25    -2875  -999.25  -999.25  -999.25   191224 120131
11417.0    7582.5   290.28    75.28   19.079     17.1    88.48        6      8.6   4325.4  -999.25  -999.25    -2875  -999.25  -999.25  -999.25   191224 120144
11418.0    7582.4   290.28    75.59   18.793     17.1    88.48        6      8.2   4359.3  -999.25  -999.25    -2875  -999.25  -999.25  -999.25   191224 120157
11419.0    7582.4   285.22    76.54   18.690     17.2    86.94        6      7.9   4386.0  -999.25  -999.25    -2875  -999.25  -999.25  -999.25   191224 120211
11420.0    7582.4   270.12    75.53   18.704     17.1    82.33        6      7.6   4130.7  -999.25  -999.25    -2875  -999.25  -999.25  -999.25   191224 120226
11421.0    7582.4   251.72    75.81   18.498     17.0    76.73        6      7.3   4075.8  -999.25  -999.25    -2875  -999.25  -999.25  -999.25   191224 120242
11422.0    7582.4   241.25    75.69   18.559     17.2    73.53        6      7.0   4058.6  -999.25  -999.25    -2875  -999.25  -999.25  -999.25   191224 120256
11423.0    7582.4   249.34    75.88   18.793     17.0    76.00        6      6.7   4151.9  -999.25  -999.25    -2875  -999.25  -999.25  -999.25   191224 120311
11424.0    7582.4   252.50    75.72   18.952     17.4    76.96        6      6.4   4200.4  -999.25  -999.25    -2875  -999.25  -999.25  -999.25   191224 120325
11425.0    7582.3   252.99    76.16   19.144     17.2    77.11        6      6.1   4152.8  -999.25  -999.25    -2875  -999.25  -999.25  -999.25   191224 120343
11426.0    7582.3   209.87    75.91   17.313     17.2    63.97        6      5.8   3979.6  -999.25  -999.25    -2875  -999.25  -999.25  -999.25   191224 120405
11427.0    7582.3   183.82    75.97   17.772     17.0    56.03        5      5.5   3244.3  -999.25  -999.25    -2875  -999.25  -999.25  -999.25   191224 120419
11428.0    7582.3   249.55    76.60   19.608     18.4    76.06        5      5.2   3426.9  -999.25  -999.25    -2875  -999.25  -999.25  -999.25   191224 120442
11429.0    7582.3   185.86    77.20   18.170     17.3    56.65        5      4.9   3423.0  -999.25  -999.25    -2875  -999.25  -999.25  -999.25   191224 120506
11430.0    7582.3   153.99    76.82   17.205     17.4    46.93        5      4.6   3295.9  -999.25  -999.25    -2875  -999.25  -999.25  -999.25   191224 120530
11431.0    7582.3   152.79    75.15   17.046     17.3    46.57        5      4.3   3233.4  -999.25  -999.25    -2875  -999.25  -999.25  -999.25   191224 120555
11432.0    7582.2   147.04    76.10   17.149     17.4    44.82        4      4.0   3046.6  -999.25  -999.25    -2875  -999.25  -999.25  -999.25   191224 120620
11433.0    7582.2   146.89    76.10   16.774     17.4    44.77        4      3.7   3068.3  -999.25  -999.25    -2875  -999.25  -999.25  -999.25   191224 120645
11434.0    7582.2   150.61    75.37   17.130     17.4    45.91        4      3.4   3026.6  -999.25  -999.25    -2875  -999.25  -999.25  -999.25   191224 120711
11435.0    7582.2   138.32    75.84   16.020     17.3    42.16        4      3.1   2956.6  -999.25  -999.25    -2875  -999.25  -999.25  -999.25   191224 120738
11436.0    7582.2   140.43    76.26   16.329     17.4    42.80        4      2.8   2845.9  -999.25  -999.25    -2875  -999.25  -999.25  -999.25   191224 120807
11437.0    7582.2   134.60    75.94   16.259     17.3    41.03        4      2.5   2770.2  -999.25  -999.25    -2875  -999.25  -999.25  -999.25   191224 120833
11438.0    7582.2   132.70    76.98   16.652     17.4    40.45        4      2.2   2782.7  -999.25  -999.25    -2875  -999.25  -999.25  -999.25   191224 120901
11439.0    7582.2   142.47    77.11   16.760     17.3    43.42        4      1.9   2881.9  -999.25  -999.25    -2875  -999.25  -999.25  -999.25   191224 120926
11440.0    7582.1   143.31    77.17   16.957     17.5    43.68        4      1.5   2934.5  -999.25  -999.25    -2875  -999.25  -999.25  -999.25   191224 120951
11441.0    7582.1   147.73    76.57   16.793     17.4    45.03        4      1.2   2963.2  -999.25  -999.25    -2875  -999.25  -999.25  -999.25   191224 121017
11442.0    7582.1   141.77    76.13   16.409     17.5    43.21        4      0.9   2876.6  -999.25  -999.25    -2875  -999.25  -999.25  -999.25   191224 121043
11443.0    7582.1   141.20    78.12   16.582     17.3    43.04        4      0.6   2908.1  -999.25  -999.25    -2875  -999.25  -999.25  -999.25   191224 121109
11444.0    7582.1   146.26    76.63   16.582     17.4    44.58        4      0.3   2857.9  -999.25  -999.25    -2875  -999.25  -999.25  -999.25   191224 121134
11445.0    7582.1    38.38    69.78   10.924      9.2    11.70        2     28.4   1431.2  -999.25  -999.25    -2875  -999.25  -999.25  -999.25   191224 121555
11446.0    7582.1   149.69    70.32   14.516     14.0    45.63        3     28.3   1986.2  -999.25  -999.25    -2875  -999.25  -999.25  -999.25   191224 121605
11447.0    7582.0   346.24    69.78   18.376     18.9   105.53        4     28.0   2916.9  -999.25  -999.25    -2875  -999.25  -999.25  -999.25   191224 121614
11448.0    7582.0   376.22    73.29   19.219     18.3   114.67        6     27.6   3918.2  -999.25  -999.25    -2875  -999.25  -999.25  -999.25   191224 121643
11449.0    7582.0   168.38    72.09   17.238     17.6    51.32        5     27.3   3786.2  -999.25  -999.25    -2875  -999.25  -999.25  -999.25   191224 121706
11450.0    7582.0   164.44    72.09   17.233     17.4    50.12        5     27.0   3621.8  -999.25  -999.25    -2875  -999.25  -999.25  -999.25   191224 121730
11451.0    7582.0   149.22    72.69   17.229     17.4    45.48        5     26.7   3685.5  -999.25  -999.25    -2875  -999.25  -999.25  -999.25   191224 121755
11452.0    7582.0   143.59    72.43   17.692     17.6    43.77        5     26.4   3766.2  -999.25  -999.25    -2875  -999.25  -999.25  -999.25   191224 121823
11453.0    7582.0   147.59    72.94   17.510     17.4    44.99        5     26.1   3744.3  -999.25  -999.25    -2875  -999.25  -999.25  -999.25   191224 121846
11454.0    7581.9   157.99    72.06   17.983     17.3    48.15        5     25.8   3751.3  -999.25  -999.25    -2875  -999.25  -999.25  -999.25   191224 121909
11455.0    7581.9   156.67    71.30   17.992     17.4    47.75        5     25.5   3792.8  -999.25  -999.25    -2875  -999.25  -999.25  -999.25   191224 121932
11456.0    7581.9   157.49    72.25   17.941     17.3    48.00        5     25.2   3873.4  -999.25  -999.25    -2875  -999.25  -999.25  -999.25   191224 121958
11457.0    7581.9   152.51    71.55   16.891     17.3    46.49        5     24.9   3758.1  -999.25  -999.25    -2875  -999.25  -999.25  -999.25   191224 122022
